[
    [{"html_attributions": [], "results": [{"business_status": "OPERATIONAL", "formatted_address": "454 Commonwealth Ave, Erlanger, KY 41018, United States", "geometry": {"location": {"lat": 39.0227449, "lng": -84.6067619}, "viewport": {"northeast": {"lat": 39.02404102989272, "lng": -84.60549227010728}, "southwest": {"lat": 39.02134137010727, "lng": -84.60819192989271}}}, "icon": "https://maps.gstatic.com/mapfiles/place_api/icons/v1/png_71/shopping-71.png", "name": "Select Pest Control", "opening_hours": {"open_now": true}, "place_id": "ChIJVVVVVZTHQYgRVaAR5vTjjjk", "plus_code": {"compound_code": "29FV+37 Erlanger, Kentucky, United States", "global_code": "86FQ29FV+37"}, "rating": 3.5, "reference": "ChIJVVVVVZTHQYgRVaAR5vTjjjk", "types": ["home_goods_store", "point_of_interest", "store", "establishment"], "user_ratings_total": 15}, {"business_status": "OPERATIONAL", "formatted_address": "99 Spiral Blvd, Florence, KY 41042, United States", "geometry": {"location": {"lat": 39.0092565, "lng": -84.64155869999999}, "viewport": {"northeast": {"lat": 39.01074107989271, "lng": -84.63998102010729}, "southwest": {"lat": 39.00804142010727, "lng": -84.64268067989273}}}, "icon": "https://maps.gstatic.com/mapfiles/place_api/icons/v1/png_71/generic_business-71.png", "name": "Home Services at The Home Depot", "opening_hours": {"open_now": true}, "photos": [{"height": 3507, "html_attributions": ["<a href=\"https://maps.google.com/maps/contrib/114287949344356893353\">Home Services at The Home Depot</a>"], "photo_reference": "ATtYBwLFwSyaCRwd3ugGC1QYCRgu9gmVXCZQzOZzHRhyusD3gRlkfrotfEutRU4_edcbdENlCtdmdItloEBgva8IixhEK43qE6zYQTzrMlLVYRQk88GJglxuhuB879G8cCFomb7gzEYvt-oC7u3qKIJ7tm_pD_vOns86oDifEFG-s66XA1DG", "width": 5260}], "place_id": "ChIJa2xvxrfHQYgRcy0vHXk0pow", "plus_code": {"compound_code": "2955+P9 Florence, Kentucky, United States", "global_code": "86FQ2955+P9"}, "price_level": 1, "rating": 3.8, "reference": "ChIJa2xvxrfHQYgRcy0vHXk0pow", "types": ["painter", "electrician", "plumber", "general_contractor", "point_of_interest", "establishment"], "user_ratings_total": 15}, {"business_status": "OPERATIONAL", "formatted_address": "7765 Foundation Dr, Florence, KY 41042, United States", "geometry": {"location": {"lat": 38.9824276, "lng": -84.597659}, "viewport": {"northeast": {"lat": 38.98397417989272, "lng": -84.59629367010727}, "southwest": {"lat": 38.98127452010728, "lng": -84.59899332989272}}}, "icon": "https://maps.gstatic.com/mapfiles/place_api/icons/v1/png_71/generic_business-71.png", "name": "A & A Lawn Care & Landscaping", "opening_hours": {"open_now": true}, "photos": [{"height": 2448, "html_attributions": ["<a href=\"https://maps.google.com/maps/contrib/108529612623655460026\">A Google User</a>"], "photo_reference": "ATtYBwL5Db7HUsbXmGDsm_MvtdYh-KsZ26ag7ZRaEpMKKAWETMJOYH9t9nOuaglEaYe2jgBKdwyAm_gg_kQ-I26RuyJiBXzatf4N05giT71O280FsaNg6WYC5wL3P5ZlarjMTQNdYOlyMbckLpIk9JT7s1s3Khl8sRp7V6baWujz--FT49dJ", "width": 3264}], "place_id": "ChIJnXdtp2y4QYgR9K8BrtRnu1s", "plus_code": {"compound_code": "XCJ2+XW Florence, Kentucky, United States", "global_code": "86CQXCJ2+XW"}, "rating": 4.9, "reference": "ChIJnXdtp2y4QYgR9K8BrtRnu1s", "types": ["general_contractor", "point_of_interest", "establishment"], "user_ratings_total": 814}, {"business_status": "OPERATIONAL", "formatted_address": "7745 Foundation Dr, Florence, KY 41042, United States", "geometry": {"location": {"lat": 38.9824235, "lng": -84.5969367}, "viewport": {"northeast": {"lat": 38.98397197989271, "lng": -84.59565367010728}, "southwest": {"lat": 38.98127232010727, "lng": -84.59835332989272}}}, "icon": "https://maps.gstatic.com/mapfiles/place_api/icons/v1/png_71/generic_business-71.png", "name": "MarkCo Plumbing", "opening_hours": {"open_now": true}, "photos": [{"height": 1365, "html_attributions": ["<a href=\"https://maps.google.com/maps/contrib/109736277789123786518\">Marcko Inc</a>"], "photo_reference": "ATtYBwKmbf1qW48FtIRSdZoAtDotKwJIbphqbZeywZqYPhaM27M8-HLeUIq5UAFDOViK8yGd45oXtYpiVBoCFnAahfKJXyZvRVbI-WHw-l143WLJS2x5u1c0T7mb0ph5kIgR07GNa-tZDCQ3p7oU9zVr9Oi7IA31ER0hZPWFdi2sWs0717zO", "width": 2048}], "place_id": "ChIJs542doa4QYgRcWZAkGAGFFw", "plus_code": {"compound_code": "XCJ3+X6 Florence, Kentucky, United States", "global_code": "86CQXCJ3+X6"}, "rating": 4.7, "reference": "ChIJs542doa4QYgRcWZAkGAGFFw", "types": ["plumber", "point_of_interest", "establishment"], "user_ratings_total": 26}, {"business_status": "OPERATIONAL", "formatted_address": "6820 Powerline Dr, Florence, KY 41042, United States", "geometry": {"location": {"lat": 38.9818195, "lng": -84.5975121}, "viewport": {"northeast": {"lat": 38.98318552989272, "lng": -84.59639657010727}, "southwest": {"lat": 38.98048587010728, "lng": -84.59909622989272}}}, "icon": "https://maps.gstatic.com/mapfiles/place_api/icons/v1/png_71/generic_business-71.png", "name": "Bryant Heating and Cooling", "opening_hours": {"open_now": true}, "photos": [{"height": 768, "html_attributions": ["<a href=\"https://maps.google.com/maps/contrib/108413828989524226267\">Bryant Heating &amp; Cooling</a>"], "photo_reference": "ATtYBwIwyVE-b3zTrBVsIyypSCQk0SlihWhVTa9djQCRKQhFR-XLGKJHdTraJoltUNK9m_0LO8A3sdONE-7aPM8Vlfv3YUocoWBdPI_VaEkRaytkP4KDCDAfVAVKHpOrv7gRUfCnO5xoUcMIZvtaovFkrVq7ly7g0y-flSaBz_rrGqFjbcTc", "width": 1152}], "place_id": "ChIJRz7Qa8KwQYgR9D9BFefqMfk", "plus_code": {"compound_code": "XCJ2+PX Florence, Kentucky, United States", "global_code": "86CQXCJ2+PX"}, "rating": 4.8, "reference": "ChIJRz7Qa8KwQYgR9D9BFefqMfk", "types": ["electrician", "general_contractor", "point_of_interest", "establishment"], "user_ratings_total": 249}, {"business_status": "OPERATIONAL", "formatted_address": "8 Oblique St, Florence, KY 41042, United States", "geometry": {"location": {"lat": 39.0021, "lng": -84.63071210000001}, "viewport": {"northeast": {"lat": 39.00337032989272, "lng": -84.62936412010727}, "southwest": {"lat": 39.00067067010728, "lng": -84.63206377989272}}}, "icon": "https://maps.gstatic.com/mapfiles/place_api/icons/v1/png_71/generic_business-71.png", "name": "Richardson Plumbing", "opening_hours": {"open_now": true}, "photos": [{"height": 1536, "html_attributions": ["<a href=\"https://maps.google.com/maps/contrib/101535774053996581968\">A Google User</a>"], "photo_reference": "ATtYBwKZAHoXyQHbdmAW0oHrbAY-8lLADCfkNI1EZ64kGRLQ1E63xFnvj88RQrAybNDdIRZSWfOCGfYC8XqQaBf_vOxt-gX5YudI6tC_tQbaGFoAA5bDurZ1sKmh67qQIUaKXhW2YTumkvxoq6_OD9PqmeQ6aY7e7B21mnoUQCt7ALb8MR_9", "width": 2048}], "place_id": "ChIJKWVJ8rzHQYgRxSLMzSq5Aog", "plus_code": {"compound_code": "2929+RP Florence, Kentucky, United States", "global_code": "86FQ2929+RP"}, "rating": 3.8, "reference": "ChIJKWVJ8rzHQYgRxSLMzSq5Aog", "types": ["plumber", "home_goods_store", "general_contractor", "point_of_interest", "store", "establishment"], "user_ratings_total": 44}, {"business_status": "OPERATIONAL", "formatted_address": "4800 Houston Rd, Florence, KY 41042, United States", "geometry": {"location": {"lat": 39.0201132, "lng": -84.6249709}, "viewport": {"northeast": {"lat": 39.02150342989273, "lng": -84.62366842010728}, "southwest": {"lat": 39.01880377010728, "lng": -84.62636807989273}}}, "icon": "https://maps.gstatic.com/mapfiles/place_api/icons/v1/png_71/shopping-71.png", "name": "Lowe's Home Improvement", "opening_hours": {"open_now": true}, "photos": [{"height": 270, "html_attributions": ["<a href=\"https://maps.google.com/maps/contrib/117727518015616343157\">Lowe&#39;s Home Improvement</a>"], "photo_reference": "ATtYBwI_lvSVawN-pJK31kBuO27V14PwJPqnXefE1KmJz6YRJ5jELF59mdNEUrNXlbZhz5PHaQ0DAAxEBS97UHTAvTNv7_2QA2Nnw7HmnivLQvao8GFldBnDH2gp00VPyszHuKcaKg_p3n8eiHoZRYUTtU5rTneMchnBpGUMolas82H3n6EB", "width": 480}], "place_id": "ChIJe67XYujHQYgRN7qQBAOszQo", "plus_code": {"compound_code": "29CG+22 Florence, Kentucky, United States", "global_code": "86FQ29CG+22"}, "price_level": 1, "rating": 3.9, "reference": "ChIJe67XYujHQYgRN7qQBAOszQo", "types": ["hardware_store", "furniture_store", "home_goods_store", "point_of_interest", "store", "establishment"], "user_ratings_total": 1751}, {"business_status": "OPERATIONAL", "formatted_address": "5578 Limaburg Rd, Burlington, KY 41005, United States", "geometry": {"location": {"lat": 39.025305, "lng": -84.689853}, "viewport": {"northeast": {"lat": 39.02649102989271, "lng": -84.68873657010728}, "southwest": {"lat": 39.02379137010727, "lng": -84.69143622989272}}}, "icon": "https://maps.gstatic.com/mapfiles/place_api/icons/v1/png_71/generic_business-71.png", "name": "Arronco Comfort Air", "opening_hours": {"open_now": true}, "photos": [{"height": 2448, "html_attributions": ["<a href=\"https://maps.google.com/maps/contrib/108183421861844947905\">A Google User</a>"], "photo_reference": "ATtYBwLk6iglR3RfYKniHROqsM_vdEc_U7b51pYVUl9TJVN2SUL-3Q3lSlbSgpmTwXf2wZ8qBDLRWagr8j9fhiiqLcWUQGFCLgAt0FTMZTEOIEo7gcLjO9sliiGiRbg1AivNsnnti8DXoq1cMq-GTs_CFCIiRsEV5BHU1MWtU1mMuXy3L2nG", "width": 2448}], "place_id": "ChIJKX7gZv3FQYgRNIS0vwobgFM", "plus_code": {"compound_code": "28G6+43 Burlington, Kentucky, United States", "global_code": "86FQ28G6+43"}, "rating": 4.8, "reference": "ChIJKX7gZv3FQYgRNIS0vwobgFM", "types": ["plumber", "general_contractor", "point_of_interest", "establishment"], "user_ratings_total": 476}, {"business_status": "OPERATIONAL", "formatted_address": "8515 U.S. Hwy 42, Florence, KY 41042, United States", "geometry": {"location": {"lat": 38.974598, "lng": -84.6594751}, "viewport": {"northeast": {"lat": 38.97605772989272, "lng": -84.65785227010727}, "southwest": {"lat": 38.97335807010727, "lng": -84.66055192989272}}}, "icon": "https://maps.gstatic.com/mapfiles/place_api/icons/v1/png_71/shopping-71.png", "name": "Great Lakes Ace", "opening_hours": {"open_now": true}, "photos": [{"height": 3024, "html_attributions": ["<a href=\"https://maps.google.com/maps/contrib/111000372629760247326\">J Davis</a>"], "photo_reference": "ATtYBwJGGmDihpmOyN8cXNVVdvsSS4EHsz-8vSoS7ZlXT_1HjooZMSid-OV99daWHpJ11811yxEy9VEdsSfOr7zH0l141SH5lBkukcJTH-S7hszGrXgt0IMvJ7KIq6D63fUzT4oc_6TE2gWR18Y2l1WHBAx_WF1nVA-XWzZFyA_X2AlI1QQ3", "width": 4032}], "place_id": "ChIJR3pzSu_GQYgRMKXfXX_V4S8", "plus_code": {"compound_code": "X8FR+R6 Florence, Kentucky, United States", "global_code": "86CQX8FR+R6"}, "price_level": 2, "rating": 4.4, "reference": "ChIJR3pzSu_GQYgRMKXfXX_V4S8", "types": ["hardware_store", "home_goods_store", "point_of_interest", "store", "establishment"], "user_ratings_total": 148}, {"business_status": "OPERATIONAL", "formatted_address": "7628 Dixie Hwy, Florence, KY 41042, United States", "geometry": {"location": {"lat": 38.9910785, "lng": -84.6238137}, "viewport": {"northeast": {"lat": 38.99247597989272, "lng": -84.62230967010727}, "southwest": {"lat": 38.98977632010728, "lng": -84.62500932989272}}}, "icon": "https://maps.gstatic.com/mapfiles/place_api/icons/v1/png_71/generic_business-71.png", "name": "Comfort Air Technologies, LLC", "opening_hours": {"open_now": true}, "photos": [{"height": 3024, "html_attributions": ["<a href=\"https://maps.google.com/maps/contrib/105161463395344855798\">A Google User</a>"], "photo_reference": "ATtYBwI2jkLPmUeeRwItTaW2bnRscp-dCMK4xVcbdtyCn1qGPgpR48Qt7A41ck7_vbWZ1Z-GtERObVNRZ8M_gdA42lZ6cb1bbJZgBuX-7gUr7WFFmJz3nnwQVvcEZJlOMLy_ZWt6jcbDigoyoo7Rx2mPThNi0-2-PzNCJU123ny4Yu5zUG2S", "width": 4032}], "place_id": "ChIJ49d7MuHHQYgRtl3us78UgMk", "plus_code": {"compound_code": "X9RG+CF Florence, Kentucky, United States", "global_code": "86CQX9RG+CF"}, "rating": 4.9, "reference": "ChIJ49d7MuHHQYgRtl3us78UgMk", "types": ["general_contractor", "point_of_interest", "establishment"], "user_ratings_total": 20}, {"business_status": "OPERATIONAL", "formatted_address": "5900 Centennial Cir #110, Florence, KY 41042, United States", "geometry": {"location": {"lat": 39.014931, "lng": -84.669347}, "viewport": {"northeast": {"lat": 39.01620637989272, "lng": -84.66835682010729}, "southwest": {"lat": 39.01350672010728, "lng": -84.67105647989273}}}, "icon": "https://maps.gstatic.com/mapfiles/place_api/icons/v1/png_71/generic_business-71.png", "name": "Electric Inspection", "opening_hours": {}, "place_id": "ChIJddN7gxXGQYgR3rHwF9LaLTk", "plus_code": {"compound_code": "287J+X7 Florence, Kentucky, United States", "global_code": "86FQ287J+X7"}, "rating": 3.7, "reference": "ChIJddN7gxXGQYgR3rHwF9LaLTk", "types": ["electrician", "point_of_interest", "establishment"], "user_ratings_total": 3}, {"business_status": "OPERATIONAL", "formatted_address": "99 Spiral Blvd, Florence, KY 41042, United States", "geometry": {"location": {"lat": 39.0089809, "lng": -84.6408028}, "viewport": {"northeast": {"lat": 39.01038097989272, "lng": -84.63936932010728}, "southwest": {"lat": 39.00768132010728, "lng": -84.64206897989273}}}, "icon": "https://maps.gstatic.com/mapfiles/place_api/icons/v1/png_71/shopping-71.png", "name": "Garden Center at The Home Depot", "opening_hours": {"open_now": true}, "photos": [{"height": 780, "html_attributions": ["<a href=\"https://maps.google.com/maps/contrib/103600785631903245937\">Garden Center at The Home Depot</a>"], "photo_reference": "ATtYBwLsG5-BYDh_4J0vhc6FH9j3jjHROPcR9s8gB2Q-HpjCoULbVxglnZiH-4AqRAnop04_kwTJ6YNy-kjrnQkH8iReT0-E8KjsmD8GtfKeZgLnM_njG5QrDK5SrvvGmKen9i4azCqK6lRbWixZW-NaGG815SSors0Y2sUEhEhpyC0kdTDI", "width": 780}], "place_id": "ChIJqY6xa7bHQYgR3e3-zEhaM8c", "plus_code": {"compound_code": "2955+HM Florence, Kentucky, United States", "global_code": "86FQ2955+HM"}, "price_level": 1, "rating": 3.8, "reference": "ChIJqY6xa7bHQYgR3e3-zEhaM8c", "types": ["furniture_store", "home_goods_store", "general_contractor", "point_of_interest", "store", "establishment"], "user_ratings_total": 6}, {"business_status": "OPERATIONAL", "formatted_address": "5571 Limaburg-Creek Rd, Florence, KY 41042, United States", "geometry": {"location": {"lat": 39.027063, "lng": -84.67870599999999}, "viewport": {"northeast": {"lat": 39.02828947989273, "lng": -84.67714022010728}, "southwest": {"lat": 39.02558982010728, "lng": -84.67983987989271}}}, "icon": "https://maps.gstatic.com/mapfiles/place_api/icons/v1/png_71/generic_business-71.png", "name": "Bell Heating Cooling & Electric", "opening_hours": {"open_now": true}, "place_id": "ChIJNToPgxzGQYgRnju3_7KTZfE", "plus_code": {"compound_code": "28GC+RG Florence, Kentucky, United States", "global_code": "86FQ28GC+RG"}, "rating": 5, "reference": "ChIJNToPgxzGQYgRnju3_7KTZfE", "types": ["general_contractor", "point_of_interest", "establishment"], "user_ratings_total": 2}, {"business_status": "OPERATIONAL", "formatted_address": "5895 Centennial Cir, Florence, KY 41042, United States", "geometry": {"location": {"lat": 39.015232, "lng": -84.671295}, "viewport": {"northeast": {"lat": 39.01660702989272, "lng": -84.67002087010728}, "southwest": {"lat": 39.01390737010728, "lng": -84.67272052989271}}}, "icon": "https://maps.gstatic.com/mapfiles/place_api/icons/v1/png_71/shopping-71.png", "name": "Tractor Supply Co.", "opening_hours": {"open_now": true}, "photos": [{"height": 3024, "html_attributions": ["<a href=\"https://maps.google.com/maps/contrib/101888710652003884010\">holly</a>"], "photo_reference": "ATtYBwKNHPWUWdoGYumxMyPnnvt6dzJEjHVB3cbXiTC3CbTr0bMGdgrAcMdIQLPvFV-vgIN5EY8Ry5PPU1P0QHoBdOfJzAUWJovFqAJ2FUFNXSQ3HY_h8NrLuZh-z-JwzwDgxsQ0V1DloDZJO-dHki5OdclW8ou_8_klzFRuJD4G_HutCTzc", "width": 4032}], "place_id": "ChIJp_olThTGQYgR63qbsDVVnOg", "plus_code": {"compound_code": "288H+3F Florence, Kentucky, United States", "global_code": "86FQ288H+3F"}, "price_level": 2, "rating": 4.4, "reference": "ChIJp_olThTGQYgR63qbsDVVnOg", "types": ["hardware_store", "home_goods_store", "point_of_interest", "store", "establishment"], "user_ratings_total": 603}, {"business_status": "OPERATIONAL", "formatted_address": "Florence, KY 41042, United States", "geometry": {"location": {"lat": 39.0062942, "lng": -84.69532009999999}, "viewport": {"northeast": {"lat": 39.00769222989273, "lng": -84.69396587010728}, "southwest": {"lat": 39.00499257010728, "lng": -84.69666552989271}}}, "icon": "https://maps.gstatic.com/mapfiles/place_api/icons/v1/png_71/generic_business-71.png", "name": "Lawn Doctor", "place_id": "ChIJMe5HD5jHQYgRsmHfLfi1Utw", "plus_code": {"compound_code": "2843+GV Florence, Kentucky, United States", "global_code": "86FQ2843+GV"}, "rating": 0, "reference": "ChIJMe5HD5jHQYgRsmHfLfi1Utw", "types": ["general_contractor", "point_of_interest", "establishment"], "user_ratings_total": 0}, {"business_status": "OPERATIONAL", "formatted_address": "7625 Doering Dr, Florence, KY 41042, United States", "geometry": {"location": {"lat": 39.0113291, "lng": -84.6507063}, "viewport": {"northeast": {"lat": 39.01234702989272, "lng": -84.64873542010729}, "southwest": {"lat": 39.00964737010727, "lng": -84.65143507989272}}}, "icon": "https://maps.gstatic.com/mapfiles/place_api/icons/v1/png_71/shopping-71.png", "name": "Walmart Supercenter", "opening_hours": {"open_now": true}, "photos": [{"height": 600, "html_attributions": ["<a href=\"https://maps.google.com/maps/contrib/115901313832137540889\">Walmart Supercenter</a>"], "photo_reference": "ATtYBwI_scxE_bFqB3ookGKil0EglkbTNekrMQ9tFhoWuUU3JI7c3tqKdkvls5C_aPnMUis5k83wmDKkbhF9BwH49SVzuYBCO0o-wVsurt4cHkPxrb0FoGRNhMGVpPuh49QuefDZfLcn1sdtTFtk2fk2ROn4ME56zChvPP0UJEYY1cQLvh1l", "width": 1067}], "place_id": "ChIJG0b8f0rGQYgRecAlK-ocjuQ", "plus_code": {"compound_code": "286X+GP Florence, Kentucky, United States", "global_code": "86FQ286X+GP"}, "price_level": 1, "rating": 3.6, "reference": "ChIJG0b8f0rGQYgRecAlK-ocjuQ", "types": ["department_store", "supermarket", "grocery_or_supermarket", "electronics_store", "home_goods_store", "food", "point_of_interest", "clothing_store", "store", "establishment"], "user_ratings_total": 5767}, {"business_status": "OPERATIONAL", "formatted_address": "7110 Dixie Hwy, Florence, KY 41042, United States", "geometry": {"location": {"lat": 39.0000811, "lng": -84.6257488}, "viewport": {"northeast": {"lat": 39.00134067989273, "lng": -84.62421237010727}, "southwest": {"lat": 38.99864102010728, "lng": -84.62691202989272}}}, "icon": "https://maps.gstatic.com/mapfiles/place_api/icons/v1/png_71/shopping-71.png", "name": "Florence Hardware", "opening_hours": {"open_now": true}, "photos": [{"height": 3024, "html_attributions": ["<a href=\"https://maps.google.com/maps/contrib/106387225003954172191\">A Google User</a>"], "photo_reference": "ATtYBwLhiBEPpBzN3h_PKeMH_iK459oLbqqiqO0Q1i1uakEoKlFHrqH9svjXWb8NHDtx3QaaPOReyWnZuOYHoBocGdhkT6P0HQ6Czmi6UZaUYQf1TP_aOK0y6XoXCDytrVQYwIGHcr1QnfPhvojcGgiQ9MZT9i5PcUf2vlCM58ap_sb_qkVn", "width": 4032}], "place_id": "ChIJhWO8i5fHQYgR8NzGI90_Vww", "plus_code": {"compound_code": "292F+2P Florence, Kentucky, United States", "global_code": "86FQ292F+2P"}, "rating": 4.7, "reference": "ChIJhWO8i5fHQYgR8NzGI90_Vww", "types": ["hardware_store", "point_of_interest", "store", "establishment"], "user_ratings_total": 183}, {"business_status": "OPERATIONAL", "formatted_address": "115 Locust Ave, Florence, KY 41042, United States", "geometry": {"location": {"lat": 38.9908651, "lng": -84.621907}, "viewport": {"northeast": {"lat": 38.99225282989272, "lng": -84.62043537010727}, "southwest": {"lat": 38.98955317010728, "lng": -84.62313502989272}}}, "icon": "https://maps.gstatic.com/mapfiles/place_api/icons/v1/png_71/generic_business-71.png", "name": "Fox Cleaning & Organization", "opening_hours": {"open_now": true}, "place_id": "ChIJ4z2qd57HQYgRDrrUE7IO0QY", "plus_code": {"compound_code": "X9RH+86 Florence, Kentucky, United States", "global_code": "86CQX9RH+86"}, "rating": 5, "reference": "ChIJ4z2qd57HQYgRDrrUE7IO0QY", "types": ["general_contractor", "point_of_interest", "establishment"], "user_ratings_total": 1}, {"business_status": "OPERATIONAL", "formatted_address": "10060 Toebben Dr, Independence, KY 41051, United States", "geometry": {"location": {"lat": 38.95557609999999, "lng": -84.6154074}, "viewport": {"northeast": {"lat": 38.95694952989273, "lng": -84.61422127010728}, "southwest": {"lat": 38.95424987010728, "lng": -84.61692092989273}}}, "icon": "https://maps.gstatic.com/mapfiles/place_api/icons/v1/png_71/shopping-71.png", "name": "Sunbelt Rentals Pump & Power Services", "opening_hours": {"open_now": true}, "photos": [{"height": 608, "html_attributions": ["<a href=\"https://maps.google.com/maps/contrib/111533154548885224231\">Sunbelt Rentals</a>"], "photo_reference": "ATtYBwJcc9nJnjkl6HTSUQO3cN_YEDEhrX8FVNi3FAQajGHqtVDZvUMLeJtWM6Ef2frEDL0WQWV2IIpRLCNtb1RttnT6SRJKessL49XzcCGafzY5QrlXzZWk_F1AOBrJ6noVJzOKW41dBcYKG2zjyIjlpl2k16u9S5HMnrsmUXzV6I93vhN5", "width": 1080}], "place_id": "ChIJTW2ZNlDHQYgRa02GX5cf8-k", "plus_code": {"compound_code": "X94M+6R Independence, Kentucky, United States", "global_code": "86CQX94M+6R"}, "rating": 4, "reference": "ChIJTW2ZNlDHQYgRa02GX5cf8-k", "types": ["point_of_interest", "store", "establishment"], "user_ratings_total": 3}], "status": "OK"}], [{"html_attributions": [], "next_page_token": "ATtYBwKDqKWXt8tlh1P7oixn2sWlAm3i9ump-LF5LCY5pEkvyFTfHXCDET3UraRdmz_YZvaOpaPAj-pYxWr9JrRq_cKyS8KRTGXZa6pFd4dZ1YnNXxdp6X0PAcnYjPUa7n39OPZAjw4jhauV0pXbzn90KBrKZMcN1npQEEoAGHkslsTz_zH6H1Oacd-Up1eR_m90_4Ft_yVzI-1F999ZQAdvBDp4OCTVb17NRCPnMqEs77GptudviVetASQLi_kkxp1nHDnAei4qWFymnW1JGesK1g2Y14dCvs7_O3ZQPAl-lKFi0oa5mqzXUiPPXQdrGTom_Rnx6MwUea7qb9pDBwQ_IwvavOT07ud0MtRm6JvA1bRHt3CcDRxshQa8GInfdjANKXHxe01n6KU_Hk6lZPspBEr38mcxGjkT8E4UKU4M6fsZfsVV8z2sbkW-wayW72JsorUMzfZQN9EN5kZql4OYghF8DtXd2b-D9GjYFmUj3dYy7v4MFw2KPM5Vw6LyMuyFf8fmATN5BSXBB6N58-jISYhZvROE6O6-Il2IsC_d4WoT-tedQodXk9EnSw3uakcf", "results": [{"business_status": "OPERATIONAL", "formatted_address": "1094 OH-28, Milford, OH 45150, United States", "geometry": {"location": {"lat": 39.1979035, "lng": -84.23388279999999}, "viewport": {"northeast": {"lat": 39.19903937989272, "lng": -84.23241987010726}, "southwest": {"lat": 39.19633972010728, "lng": -84.23511952989271}}}, "icon": "https://maps.gstatic.com/mapfiles/place_api/icons/v1/png_71/generic_business-71.png", "name": "Home Services at The Home Depot", "opening_hours": {"open_now": true}, "photos": [{"height": 3507, "html_attributions": ["<a href=\"https://maps.google.com/maps/contrib/110860972821252040251\">Home Services at The Home Depot</a>"], "photo_reference": "ATtYBwKKMcbxnCxtNnin_gCJPlWL_7I0imw1Dy2Hp2El5z1SeFi1Z4Svr_aL3ydZEQxZL0Js_xqdX8XEBd9Kt1W9F1TSptp2gwiWUxsmBb2-9zMdCE77QBk9qKRpVfrZVetB643jpD36j8e7USlT28PUE1FVuE1-OrC8uJD5eg-zJt4hiJLi", "width": 5260}], "place_id": "ChIJK895k8n_QIgRIgCq-9P6k5U", "plus_code": {"compound_code": "5QX8+5C Milford, Ohio, United States", "global_code": "86FQ5QX8+5C"}, "price_level": 1, "rating": 4, "reference": "ChIJK895k8n_QIgRIgCq-9P6k5U", "types": ["painter", "electrician", "plumber", "general_contractor", "point_of_interest", "establishment"], "user_ratings_total": 23}, {"business_status": "OPERATIONAL", "formatted_address": "8950 Glendale Milford Rd, Loveland, OH 45140, United States", "geometry": {"location": {"lat": 39.22695, "lng": -84.319268}, "viewport": {"northeast": {"lat": 39.22835712989272, "lng": -84.31810572010727}, "southwest": {"lat": 39.22565747010728, "lng": -84.32080537989272}}}, "icon": "https://maps.gstatic.com/mapfiles/place_api/icons/v1/png_71/generic_business-71.png", "name": "BEST Plumbing Service of Cincinnati", "opening_hours": {"open_now": true}, "photos": [{"height": 1853, "html_attributions": ["<a href=\"https://maps.google.com/maps/contrib/105822940413984714130\">A Google User</a>"], "photo_reference": "ATtYBwKamrjAw5jSD4GCkvLLHgfB4HjuRtZ0tKedLDYN59V9VGFyw1XIL8PLNcLZInrJ7-z0r_zLqhfRUPpsxU_R4cs7TTim7yDYsDbb6jyl_M46ExorDxIoxvvsbyi_w9w8wk_SlnhspeL7sDEnKzWDbBvFXdtKQB-yV-kI2_lfKZeuaZA", "width": 2779}], "place_id": "ChIJ1TzXFcRSQIgRXn1NnUvB10s", "plus_code": {"compound_code": "6MGJ+Q7 Loveland, Ohio, United States", "global_code": "86FQ6MGJ+Q7"}, "rating": 4.9, "reference": "ChIJ1TzXFcRSQIgRXn1NnUvB10s", "types": ["plumber", "point_of_interest", "establishment"], "user_ratings_total": 598}, {"business_status": "OPERATIONAL", "formatted_address": "2000 Ford Cir E, Milford, OH 45150, United States", "geometry": {"location": {"lat": 39.1561897, "lng": -84.25161229999999}, "viewport": {"northeast": {"lat": 39.15745037989272, "lng": -84.25050132010728}, "southwest": {"lat": 39.15475072010728, "lng": -84.25320097989272}}}, "icon": "https://maps.gstatic.com/mapfiles/place_api/icons/v1/png_71/generic_business-71.png", "name": "1-Tom-Plumber", "opening_hours": {"open_now": true}, "photos": [{"height": 310, "html_attributions": ["<a href=\"https://maps.google.com/maps/contrib/100787876465787578049\">A Google User</a>"], "photo_reference": "ATtYBwIvHKhV8AlwhKgkrJszSFcNo8EkQ2ABlBV9Tt0-5F9BEqqdv2HZhXRri7LMi1khpvbpwAkSbHxnBoJeZ3LJEaMbUkHyZULwQI-yib0_uAbwmFPNCHOElOLj7OKlknn_AqJIsVkaY8eny3_hVQIgMXckHpdgkEf8KCJH2JkO3hOIKTMX", "width": 551}], "place_id": "ChIJpUB5tQIBQYgREJo6zD1VeQY", "plus_code": {"compound_code": "5P4X+F9 Milford, Ohio, United States", "global_code": "86FQ5P4X+F9"}, "rating": 5, "reference": "ChIJpUB5tQIBQYgREJo6zD1VeQY", "types": ["plumber", "general_contractor", "point_of_interest", "establishment"], "user_ratings_total": 256}, {"business_status": "OPERATIONAL", "formatted_address": "5694 Romar Dr, Milford, OH 45150, United States", "geometry": {"location": {"lat": 39.1856447, "lng": -84.25951010000001}, "viewport": {"northeast": {"lat": 39.18713737989273, "lng": -84.25763627010727}, "southwest": {"lat": 39.18443772010728, "lng": -84.26033592989272}}}, "icon": "https://maps.gstatic.com/mapfiles/place_api/icons/v1/png_71/shopping-71.png", "name": "Lowe's Home Improvement", "opening_hours": {"open_now": true}, "photos": [{"height": 270, "html_attributions": ["<a href=\"https://maps.google.com/maps/contrib/116084807250952077457\">Lowe&#39;s Home Improvement</a>"], "photo_reference": "ATtYBwL6dt9nLlgB_gSmsf9QbmF1xnVtP0CHRCjKZ9NUGDlAKjfnQ5inSWhl89lv65XcrkzTO_VQNnG34rYKute9x0O7cQHBianFs-0RzIUbcnaC5k0HJMBSCV0UzxUeJ-AnxmJXNCdASYH7XLWN5AtHvB3vQALJlPhkWlOhtBpNtUEhJakG", "width": 480}], "place_id": "ChIJK1TrteT_QIgRGk658-lGFSs", "plus_code": {"compound_code": "5PPR+75 Milford, Ohio, United States", "global_code": "86FQ5PPR+75"}, "price_level": 1, "rating": 4.1, "reference": "ChIJK1TrteT_QIgRGk658-lGFSs", "types": ["hardware_store", "furniture_store", "home_goods_store", "point_of_interest", "store", "establishment"], "user_ratings_total": 1033}, {"business_status": "OPERATIONAL", "formatted_address": "1094 OH-28, Milford, OH 45150, United States", "geometry": {"location": {"lat": 39.19734220000001, "lng": -84.2345489}, "viewport": {"northeast": {"lat": 39.19862472989272, "lng": -84.23316282010727}, "southwest": {"lat": 39.19592507010728, "lng": -84.23586247989272}}}, "icon": "https://maps.gstatic.com/mapfiles/place_api/icons/v1/png_71/shopping-71.png", "name": "Garden Center at The Home Depot", "opening_hours": {"open_now": true}, "photos": [{"height": 540, "html_attributions": ["<a href=\"https://maps.google.com/maps/contrib/105661028412390148138\">A Google User</a>"], "photo_reference": "ATtYBwJk3BUYyOuZRRzAk0TZ8M0rs5AFfYqOIZ2k4_oUyO36kk5K-609B76bKPaHPZ7PXjKMpPW2K3caFCwSsbh78rzLHiREi85Tb_sqxjcVJ6LI2tmeesJ6Ndf-TgGmIDc1WRPRi6ns28n3Kjno8XF8HjBIc_FXHN049isa7AvrXTxKt7s2", "width": 720}], "place_id": "ChIJORe67cn_QIgRiG1pt_wuT0Q", "plus_code": {"compound_code": "5QW8+W5 Milford, Ohio, United States", "global_code": "86FQ5QW8+W5"}, "price_level": 1, "rating": 3.7, "reference": "ChIJORe67cn_QIgRiG1pt_wuT0Q", "types": ["furniture_store", "home_goods_store", "general_contractor", "point_of_interest", "store", "establishment"], "user_ratings_total": 13}, {"business_status": "OPERATIONAL", "formatted_address": "1325 OH-28, Loveland, OH 45140, United States", "geometry": {"location": {"lat": 39.204796, "lng": -84.2164}, "viewport": {"northeast": {"lat": 39.20619782989272, "lng": -84.21489972010727}, "southwest": {"lat": 39.20349817010728, "lng": -84.21759937989272}}}, "icon": "https://maps.gstatic.com/mapfiles/place_api/icons/v1/png_71/shopping-71.png", "name": "Tractor Supply Co.", "opening_hours": {"open_now": true}, "photos": [{"height": 4032, "html_attributions": ["<a href=\"https://maps.google.com/maps/contrib/105451070413597138569\">A Google User</a>"], "photo_reference": "ATtYBwK173aKIrHX5pTD4MAcFWuYe-hDiaprkBg6U5Tlaw0mJHhKVi-ZGglvKWM37XodNZC7vzZkEpUtxyAJ_3u49Cpow-8zuNPMzD0iadZtcjAF_ZoMMNH8gSfKD18e79iXcXQLc5g-p7ZbEaaYSfDkaw86xLuTY_UCwpLsRt150K3qKJuD", "width": 3024}], "place_id": "ChIJG6oN6pX_QIgRy0Ao8lYIupg", "plus_code": {"compound_code": "6Q3M+WC Loveland, Ohio, United States", "global_code": "86FQ6Q3M+WC"}, "price_level": 2, "rating": 4.5, "reference": "ChIJG6oN6pX_QIgRy0Ao8lYIupg", "types": ["hardware_store", "home_goods_store", "point_of_interest", "store", "establishment"], "user_ratings_total": 194}, {"business_status": "OPERATIONAL", "formatted_address": "897 Loveland Madeira Rd, Loveland, OH 45140, United States", "geometry": {"location": {"lat": 39.259981, "lng": -84.2726094}, "viewport": {"northeast": {"lat": 39.26137612989272, "lng": -84.27115372010728}, "southwest": {"lat": 39.25867647010728, "lng": -84.27385337989273}}}, "icon": "https://maps.gstatic.com/mapfiles/place_api/icons/v1/png_71/generic_business-71.png", "name": "Oasis Turf & Tree", "opening_hours": {"open_now": true}, "photos": [{"height": 825, "html_attributions": ["<a href=\"https://maps.google.com/maps/contrib/111131328778934296320\">A Google User</a>"], "photo_reference": "ATtYBwLM9yqO_TgY6EieomZeV6LLQnaJRDWW0TwidGJSWqidaCS-TruDQdNdjn--T0nwLzSdh-BsocpAIW1-OcoR9nzWlkO1u0oAXdRfvKsFs_lDXcIdqLZTYw05sNPz9poMgMUn2dxl1LKQYJ9YAiTldsJj1AbdEZSf39lxHAZ3411ecPqI", "width": 1238}], "place_id": "ChIJSUwfjMm-QYgRajldswo-hpo", "plus_code": {"compound_code": "7P5G+XX Loveland, Ohio, United States", "global_code": "86FQ7P5G+XX"}, "rating": 4.6, "reference": "ChIJSUwfjMm-QYgRajldswo-hpo", "types": ["home_goods_store", "point_of_interest", "store", "establishment"], "user_ratings_total": 222}, {"business_status": "OPERATIONAL", "formatted_address": "201 Chamber Dr, Milford, OH 45150, United States", "geometry": {"location": {"lat": 39.159445, "lng": -84.2802188}, "viewport": {"northeast": {"lat": 39.16082977989272, "lng": -84.27847522010728}, "southwest": {"lat": 39.15813012010727, "lng": -84.28117487989273}}}, "icon": "https://maps.gstatic.com/mapfiles/place_api/icons/v1/png_71/shopping-71.png", "name": "Walmart Supercenter", "opening_hours": {"open_now": true}, "photos": [{"height": 600, "html_attributions": ["<a href=\"https://maps.google.com/maps/contrib/110671008671529791356\">Walmart Supercenter</a>"], "photo_reference": "ATtYBwKhiQaPY_CteFzmemhgdhV-DtVtjPWq7tZXDzvRGiMNmFeV3AdrEPu5mvbGPgI-2v4hPNwa6_M9wUJa58pqN4gg96_8X9AvgYdgdIKt9WY6YW191cKUBhmd_iHwsAB9cTNvulgw1akdW-ET6Da8UflCL4i-mzSKOQrqEOLTZdsgkgE0", "width": 1067}], "place_id": "ChIJ-zLFCpiqQYgRhHpoeQGZXPQ", "plus_code": {"compound_code": "5P59+QW Milford, Ohio, United States", "global_code": "86FQ5P59+QW"}, "price_level": 1, "rating": 3.7, "reference": "ChIJ-zLFCpiqQYgRhHpoeQGZXPQ", "types": ["department_store", "supermarket", "grocery_or_supermarket", "electronics_store", "home_goods_store", "food", "point_of_interest", "clothing_store", "store", "establishment"], "user_ratings_total": 2609}, {"business_status": "OPERATIONAL", "formatted_address": "100 Rivers Edge Dr, Milford, OH 45150, United States", "geometry": {"location": {"lat": 39.1625974, "lng": -84.2751186}, "viewport": {"northeast": {"lat": 39.16388372989272, "lng": -84.27330912010727}, "southwest": {"lat": 39.16118407010728, "lng": -84.2760087798927}}}, "icon": "https://maps.gstatic.com/mapfiles/place_api/icons/v1/png_71/shopping-71.png", "name": "Target", "opening_hours": {"open_now": true}, "photos": [{"height": 2988, "html_attributions": ["<a href=\"https://maps.google.com/maps/contrib/115998805440825342588\">Ernest Warner</a>"], "photo_reference": "ATtYBwJiKqNy-VUcLhkhxc9eo1r_UiEPbQDCvVgz_uVq3yViJEq9zEeH0_2lTAjALaiaUocaZ5YZQkNQa4GX---ZtcJnIJfxM8IDih46kX5gV4v33sHU8dGHN-yAkfkYTXAC51GDHNAUOMo4G4J5_6H39-w_59ZuuXYBiC7GoTtmDJi2-AnB", "width": 5312}], "place_id": "ChIJ-W8Df6GqQYgRa-i49i6FJ5k", "plus_code": {"compound_code": "5P7F+2X Milford, Ohio, United States", "global_code": "86FQ5P7F+2X"}, "price_level": 2, "rating": 4.2, "reference": "ChIJ-W8Df6GqQYgRa-i49i6FJ5k", "types": ["department_store", "grocery_or_supermarket", "electronics_store", "furniture_store", "home_goods_store", "food", "point_of_interest", "clothing_store", "store", "establishment"], "user_ratings_total": 296}, {"business_status": "OPERATIONAL", "formatted_address": "1094 OH-28, Milford, OH 45150, United States", "geometry": {"location": {"lat": 39.1979292, "lng": -84.23383}, "viewport": {"northeast": {"lat": 39.19905997989272, "lng": -84.23236817010728}, "southwest": {"lat": 39.19636032010727, "lng": -84.23506782989271}}}, "icon": "https://maps.gstatic.com/mapfiles/place_api/icons/v1/png_71/generic_business-71.png", "name": "Tool & Truck Rental Center at The Home Depot", "opening_hours": {"open_now": true}, "photos": [{"height": 833, "html_attributions": ["<a href=\"https://maps.google.com/maps/contrib/103674889109865063442\">Tool Rental Center at The Home Depot</a>"], "photo_reference": "ATtYBwIj4iGN3zc4vEYuI27mFOOuxVrZe8kZCu2GUZOM5F9My-KaltYSuzOQuJZJ7Uj0DGB8nN4om94973q32N3V86nA2F6_8z2pUDsoFx13kDgPTmCSW2dLFBaNWi3T4LIW7GYQOJa5CF02JNkpR3h7yfzkacTgo8UUC16ZxyrF18mdOO6N", "width": 833}], "place_id": "ChIJYyjx7cn_QIgRDBTjEtwy7fE", "plus_code": {"compound_code": "5QX8+5F Milford, Ohio, United States", "global_code": "86FQ5QX8+5F"}, "price_level": 1, "rating": 4.5, "reference": "ChIJYyjx7cn_QIgRDBTjEtwy7fE", "types": ["point_of_interest", "establishment"], "user_ratings_total": 4}, {"business_status": "OPERATIONAL", "formatted_address": "1375 OH-131 suite D1, Milford, OH 45150, United States", "geometry": {"location": {"lat": 39.1755881, "lng": -84.21463279999999}, "viewport": {"northeast": {"lat": 39.17702392989273, "lng": -84.21327452010728}, "southwest": {"lat": 39.17432427010728, "lng": -84.21597417989273}}}, "icon": "https://maps.gstatic.com/mapfiles/place_api/icons/v1/png_71/generic_business-71.png", "name": "Frisby Roofing & Construction, Co.", "opening_hours": {"open_now": true}, "photos": [{"height": 607, "html_attributions": ["<a href=\"https://maps.google.com/maps/contrib/101808897669228175238\">A Google User</a>"], "photo_reference": "ATtYBwKJSkPOlGidssY7qo4-cJU7KVSQjs4WNYFoQjzxrrSPOgWHB8_afPSy1Q551uZARb9Bl3Sf0lRrzmIAdzBXxHUX3wBxe2yI0T7uyBbHFz94YNZt8c1ifXuQ204Txy9t_UjLrmgbxsGlgxZ5LxBTljOgCCS9BulBg86VxxzXxiQ_kJrG", "width": 1080}], "place_id": "ChIJw_cm89gBQYgRF3JANB7x45Q", "plus_code": {"compound_code": "5QGP+64 Milford, Ohio, United States", "global_code": "86FQ5QGP+64"}, "rating": 4.4, "reference": "ChIJw_cm89gBQYgRF3JANB7x45Q", "types": ["roofing_contractor", "general_contractor", "point_of_interest", "establishment"], "user_ratings_total": 408}, {"business_status": "OPERATIONAL", "formatted_address": "1615 OH-131, Milford, OH 45150, United States", "geometry": {"location": {"lat": 39.1763877, "lng": -84.1940985}, "viewport": {"northeast": {"lat": 39.17814967989272, "lng": -84.19283777010727}, "southwest": {"lat": 39.17545002010727, "lng": -84.19553742989272}}}, "icon": "https://maps.gstatic.com/mapfiles/place_api/icons/v1/png_71/generic_business-71.png", "name": "Xylem Cincinnati - Pump Rental & Sales", "opening_hours": {"open_now": true}, "photos": [{"height": 500, "html_attributions": ["<a href=\"https://maps.google.com/maps/contrib/116027822953656364836\">Xylem Pump Rental &amp; Sales</a>"], "photo_reference": "ATtYBwK2EY3c70qV0SfVKjPKKUgcF3s70YKqfaL9NQP9c22IReM5653uZ5BEafjXIzNz596bNEYt9V65LXqPd5gxrF7i4snkPe_ReZ_CL-ULHZnzrjQ6lU5fLGkRMb-pkNJMTvrPUxLF5s9BXd1VnzDeC-38McMncndXDVjQVubfnSR9ZLj-", "width": 900}], "place_id": "ChIJKax3e_0BQYgRCHzz9-SRxUA", "plus_code": {"compound_code": "5RG4+H9 Milford, Ohio, United States", "global_code": "86FQ5RG4+H9"}, "rating": 4.6, "reference": "ChIJKax3e_0BQYgRCHzz9-SRxUA", "types": ["point_of_interest", "establishment"], "user_ratings_total": 5}, {"business_status": "OPERATIONAL", "formatted_address": "1159 OH-32, Batavia, OH 45103, United States", "geometry": {"location": {"lat": 39.089264, "lng": -84.24727000000001}, "viewport": {"northeast": {"lat": 39.09065922989272, "lng": -84.24590182010728}, "southwest": {"lat": 39.08795957010728, "lng": -84.24860147989271}}}, "icon": "https://maps.gstatic.com/mapfiles/place_api/icons/v1/png_71/shopping-71.png", "name": "Tractor Supply Co.", "opening_hours": {"open_now": true}, "photos": [{"height": 4032, "html_attributions": ["<a href=\"https://maps.google.com/maps/contrib/116010447315883804282\">Matt Frizzell</a>"], "photo_reference": "ATtYBwLLfPd0mDxM-qFZ53d6pVhkBhSMoYL9gvQu-XakuR4WrJEo3M2mZeQKXI18xIydql-uOdnFE17jo-F9OHM2vJkhcqJcFi3u8GnP-t9Ogsc3OF4fKuXxOOkNC-y_pxJZGbm5Dm8h0J8jHnVleRkQDY6WTkSyRM-4RtnR3YLsybdlPrrw", "width": 3024}], "place_id": "ChIJYSrHQTYHQYgRfGWssPhho3c", "plus_code": {"compound_code": "3QQ3+P3 Batavia, Ohio, United States", "global_code": "86FQ3QQ3+P3"}, "price_level": 2, "rating": 4.4, "reference": "ChIJYSrHQTYHQYgRfGWssPhho3c", "types": ["hardware_store", "home_goods_store", "point_of_interest", "store", "establishment"], "user_ratings_total": 616}, {"business_status": "OPERATIONAL", "formatted_address": "520 Ohio Pike, Cincinnati, OH 45255, United States", "geometry": {"location": {"lat": 39.073116, "lng": -84.304841}, "viewport": {"northeast": {"lat": 39.07420707989272, "lng": -84.30321882010728}, "southwest": {"lat": 39.07150742010728, "lng": -84.30591847989271}}}, "icon": "https://maps.gstatic.com/mapfiles/place_api/icons/v1/png_71/generic_business-71.png", "name": "Home Services at The Home Depot", "opening_hours": {"open_now": true}, "photos": [{"height": 3507, "html_attributions": ["<a href=\"https://maps.google.com/maps/contrib/111599305628939601520\">Home Services at The Home Depot</a>"], "photo_reference": "ATtYBwK-zFLzps_CoiqhAxfIWNJ5M5zpHisKPUuAXknIqJbmtcXDzeikeZh4fVrFxNXL2wOJBEvNMQrjn5YHrBuqUTlywr-KJEq-sjsTAknK4M0PySFHLdNiCW7s_1LsmdhaRQC1Q6mdqHZYuVDTx2pGW5_loCFs9FI7sHUNOxtLvTmCSVTr", "width": 5260}], "place_id": "ChIJA3G0R6SpQYgRtmhlTFxUzpo", "plus_code": {"compound_code": "3MFW+63 Cincinnati, Ohio, United States", "global_code": "86FQ3MFW+63"}, "price_level": 1, "rating": 3.4, "reference": "ChIJA3G0R6SpQYgRtmhlTFxUzpo", "types": ["painter", "electrician", "plumber", "general_contractor", "point_of_interest", "establishment"], "user_ratings_total": 9}, {"business_status": "OPERATIONAL", "formatted_address": "11541 Goldcoast Dr, Cincinnati, OH 45249, United States", "geometry": {"location": {"lat": 39.277233, "lng": -84.351045}, "viewport": {"northeast": {"lat": 39.27864367989272, "lng": -84.34960847010727}, "southwest": {"lat": 39.27594402010728, "lng": -84.35230812989272}}}, "icon": "https://maps.gstatic.com/mapfiles/place_api/icons/v1/png_71/shopping-71.png", "name": "Sure Thing Pest Control", "opening_hours": {"open_now": true}, "photos": [{"height": 383, "html_attributions": ["<a href=\"https://maps.google.com/maps/contrib/114558028657828789813\">Sure Thing Pest Control</a>"], "photo_reference": "ATtYBwK5E9QDDx39LhKU2KfX_nk-zj2V8jZePzNUh_t2uWKaZcD3ckrF_nIJoFIvORgxsB9C0nQ9LjqQ_lICS47fAyVqCwiOt8Xm64PmxhX49oblMY6i3J9B9ZBdYRXWjQ_e9pIWO3ZpwHRC2eF9XOwI4jbA7bnC8UbuL8mrUQmgGmYBgi0W", "width": 1035}], "place_id": "ChIJ9bp6eLJWQIgRacvLvkQK7AY", "plus_code": {"compound_code": "7JGX+VH Cincinnati, Ohio, United States", "global_code": "86FQ7JGX+VH"}, "rating": 4.3, "reference": "ChIJ9bp6eLJWQIgRacvLvkQK7AY", "types": ["home_goods_store", "point_of_interest", "store", "establishment"], "user_ratings_total": 72}, {"business_status": "OPERATIONAL", "formatted_address": "4562 Glen Haven Cir, Batavia, OH 45103, United States", "geometry": {"location": {"lat": 39.10198219999999, "lng": -84.23707929999999}, "viewport": {"northeast": {"lat": 39.10346792989272, "lng": -84.23577332010727}, "southwest": {"lat": 39.10076827010727, "lng": -84.23847297989272}}}, "icon": "https://maps.gstatic.com/mapfiles/place_api/icons/v1/png_71/generic_business-71.png", "name": "Clermont lawn and landscape service", "opening_hours": {"open_now": true}, "photos": [{"height": 404, "html_attributions": ["<a href=\"https://maps.google.com/maps/contrib/116080677652090645039\">A Google User</a>"], "photo_reference": "ATtYBwI_wLt4Fn6Uvo6fmVW7I76b48nivCOC-6qyQTkSNJeT7QS4cjVjexkU_41gzIwOu_9rJx0Ir07iUMObxPzk9Mc_rgWXpwKslRy1Ie8hPOmw686_sOXYDnVtouNwNL5jqMnhuD1DEmi3w2utNBS5ITFuCxccLUZYuDGM76U3I54_Rpw", "width": 720}], "place_id": "ChIJiy86iDUBQYgRnkHUANapqTA", "plus_code": {"compound_code": "4Q27+Q5 Batavia, Ohio, United States", "global_code": "86FQ4Q27+Q5"}, "rating": 4.6, "reference": "ChIJiy86iDUBQYgRnkHUANapqTA", "types": ["general_contractor", "point_of_interest", "establishment"], "user_ratings_total": 9}, {"business_status": "OPERATIONAL", "formatted_address": "5589 Autumn Wynd Ln, Milford, OH 45150, United States", "geometry": {"location": {"lat": 39.171749, "lng": -84.242509}, "viewport": {"northeast": {"lat": 39.17292107989272, "lng": -84.24077787010728}, "southwest": {"lat": 39.17022142010727, "lng": -84.24347752989271}}}, "icon": "https://maps.gstatic.com/mapfiles/place_api/icons/v1/png_71/shopping-71.png", "name": "Beatrice Home Improvement", "place_id": "ChIJD--jaSQAQYgRZKSyDJIVdtc", "plus_code": {"compound_code": "5QC4+MX Milford, Ohio, United States", "global_code": "86FQ5QC4+MX"}, "rating": 5, "reference": "ChIJD--jaSQAQYgRZKSyDJIVdtc", "types": ["home_goods_store", "general_contractor", "point_of_interest", "store", "establishment"], "user_ratings_total": 1}, {"business_status": "OPERATIONAL", "formatted_address": "520 Ohio Pike, Cincinnati, OH 45255, United States", "geometry": {"location": {"lat": 39.073015, "lng": -84.3046655}, "viewport": {"northeast": {"lat": 39.07415657989272, "lng": -84.30313107010727}, "southwest": {"lat": 39.07145692010728, "lng": -84.30583072989272}}}, "icon": "https://maps.gstatic.com/mapfiles/place_api/icons/v1/png_71/shopping-71.png", "name": "The Home Depot", "opening_hours": {"open_now": true}, "photos": [{"height": 1714, "html_attributions": ["<a href=\"https://maps.google.com/maps/contrib/100090713420853433917\">The Home Depot</a>"], "photo_reference": "ATtYBwIbAUyd1CiYmk_FUmOwrV_55nSB4q1gbS_tzSEMSsm-MoDiBa3oWigqxU2NFW6TnIG11PtthqviztsdVrbFzH5eaRvXlWwGxARmmt_ggf5PKG-YT39DcCy_8vuO0ejTdnHG3tBrbgbwJeNeynC-KmkoOTeqlBozIE3LdZZpdS0iFdSd", "width": 2917}], "place_id": "ChIJ02r2aqupQYgRQEzAQjH47Ic", "plus_code": {"compound_code": "3MFW+64 Cincinnati, Ohio, United States", "global_code": "86FQ3MFW+64"}, "rating": 4.1, "reference": "ChIJ02r2aqupQYgRQEzAQjH47Ic", "types": ["hardware_store", "furniture_store", "home_goods_store", "point_of_interest", "store", "establishment"], "user_ratings_total": 438}, {"business_status": "OPERATIONAL", "formatted_address": "1079 Ohio Pike, Cincinnati, OH 45245, United States", "geometry": {"location": {"lat": 39.0544116, "lng": -84.2578308}, "viewport": {"northeast": {"lat": 39.05598937989272, "lng": -84.25621727010727}, "southwest": {"lat": 39.05328972010728, "lng": -84.25891692989272}}}, "icon": "https://maps.gstatic.com/mapfiles/place_api/icons/v1/png_71/generic_business-71.png", "name": "Schneller & Knochelmann Plumbing, Heating & Air Conditioning", "opening_hours": {"open_now": true}, "photos": [{"height": 575, "html_attributions": ["<a href=\"https://maps.google.com/maps/contrib/115627967140723776353\">A Google User</a>"], "photo_reference": "ATtYBwL0cQ1rreZ3n5ueZzFRrKJI3j493yXA1xBGCgMWTPDCRIsbILHyvL6iAFzUPIv48xvJmovvPitXIiloFAaFOsYZiqbDaxFMwhXo31eN10quIj8VUKJYUdLwP95xHq3D4IWvx_fxPV6Oor5n4lzfDKqyydeALwubL7SCG_R_9NxjM0_z", "width": 1024}], "place_id": "ChIJ-QY42XcHQYgRcFRJZMWWDOc", "plus_code": {"compound_code": "3P3R+QV Cincinnati, Ohio, United States", "global_code": "86FQ3P3R+QV"}, "rating": 4.9, "reference": "ChIJ-QY42XcHQYgRcFRJZMWWDOc", "types": ["plumber", "general_contractor", "point_of_interest", "establishment"], "user_ratings_total": 1767}, {"business_status": "OPERATIONAL", "formatted_address": "4538 Camberwell Rd, Cincinnati, OH 45209, United States", "geometry": {"location": {"lat": 39.159095, "lng": -84.41778099999999}, "viewport": {"northeast": {"lat": 39.16039862989273, "lng": -84.41656247010727}, "southwest": {"lat": 39.15769897010729, "lng": -84.4192621298927}}}, "icon": "https://maps.gstatic.com/mapfiles/place_api/icons/v1/png_71/generic_business-71.png", "name": "Apollo Home", "opening_hours": {"open_now": true}, "photos": [{"height": 467, "html_attributions": ["<a href=\"https://maps.google.com/maps/contrib/117819079729672606614\">A Google User</a>"], "photo_reference": "ATtYBwLxtfEV0Wm7HYhqGrxHYzozDSX3bslA4W-ZG2yEvoE5ONtrvTJclXdhZCFr7efoutKBLph1aCrAaQ0u1sIjlu1IgoMPS2tMzEhtnQrdFPIkA9vqTKoh-tor7-4pHWus5ZkN3b8MJqyl88mL14UIECXasXHIacfPZC7JtFd12szACQ7e", "width": 700}], "place_id": "ChIJ87KmDeiyQYgRq8Mxz5Rpb9A", "plus_code": {"compound_code": "5H5J+JV Cincinnati, Ohio, United States", "global_code": "86FQ5H5J+JV"}, "rating": 4.8, "reference": "ChIJ87KmDeiyQYgRq8Mxz5Rpb9A", "types": ["electrician", "plumber", "general_contractor", "point_of_interest", "establishment"], "user_ratings_total": 4568}], "status": "OK"}],[{"html_attributions": [], "next_page_token": "ATtYBwK-lBDJdRQU3jGtRrGsIlJ7CTJIdVIH7iKFaj_29_YJo0C6wYSxnP3zUTrfLGtp6_IdvUz8guu_diGJZiR3c03casD2wBBhDefwSrejxtteldUsNacZsq-09VGtbWn5AsbQ6mHn2IWyEZGyljOOHyfuaHTCgY3pU23GOjS0ng2Y3qtXu0aP3wr5q3OBvHZftHLc9Mq2P_baQvl3wvF-ys2fU7dCpzC4CeSIKUTC90Bh1w8S3Z-zJ21cSNINPZhwdxPRPDgkHXAiSSi21rVfIbPfp3LV58-rCfj1O5L1pbDn4HMEVvhw7FVpM6NYBEAi1Vg4D80Q2LkRjhbAlXt-sUnVywxCyqI0-rDzDsQi_6Cq0uF5m0Ej3NmhTvuBCeVa6MNgc103cwCzXL43N2_7gdJWp11GM5ktbHU53_rLgedEwL-mxIzl7l8D98ZAAFLst2RrcX4O4GKW-4JA0Yaa22T0ZlYAGnzSoc2k_YLVjnQZ8VRg_zyyxEkzx1gkbH7p-3GgXbXglhHuF0bKU8fvpy3Y1PnrmVvu_KKLA57fTSIMi50C98DsDOqsdiJpXW2N", "results": [{"business_status": "OPERATIONAL", "formatted_address": "2035 Whispering Willow Ln, Amelia, OH 45102, United States", "geometry": {"location": {"lat": 39.016474, "lng": -84.177797}, "viewport": {"northeast": {"lat": 39.01778502989271, "lng": -84.17626607010729}, "southwest": {"lat": 39.01508537010727, "lng": -84.17896572989272}}}, "icon": "https://maps.gstatic.com/mapfiles/place_api/icons/v1/png_71/generic_business-71.png", "name": "Bates HVAC", "opening_hours": {"open_now": true}, "photos": [{"height": 708, "html_attributions": ["<a href=\"https://maps.google.com/maps/contrib/107268351199886813687\">Bates HVAC</a>"], "photo_reference": "ATtYBwIFS7-IQCVFcu6RWmHa7pNZTSLeuc8sv_L3qk5ciU7vqFbnz8Bai4ubF5Yp7dpzZwLVW241NJG6WlL5J8lHZumA4y0AKku2aMpWfEBwx2uL3ajL1wl_-dbZrlSExTsamwM2Mdnl3JtSolGx_4V9qW8zLDcqRx0p3WLtKSEFlYuaiGWA", "width": 944}], "place_id": "ChIJUz5TTfoFQYgR7DXImLK_Ad4", "plus_code": {"compound_code": "2R8C+HV Amelia, Ohio, United States", "global_code": "86FQ2R8C+HV"}, "rating": 4.8, "reference": "ChIJUz5TTfoFQYgR7DXImLK_Ad4", "types": ["general_contractor", "point_of_interest", "establishment"], "user_ratings_total": 169}, {"business_status": "OPERATIONAL", "formatted_address": "1079 Ohio Pike, Cincinnati, OH 45245, United States", "geometry": {"location": {"lat": 39.0544116, "lng": -84.2578308}, "viewport": {"northeast": {"lat": 39.05598937989272, "lng": -84.25621727010727}, "southwest": {"lat": 39.05328972010728, "lng": -84.25891692989272}}}, "icon": "https://maps.gstatic.com/mapfiles/place_api/icons/v1/png_71/generic_business-71.png", "name": "Schneller & Knochelmann Plumbing, Heating & Air Conditioning", "opening_hours": {"open_now": true}, "photos": [{"height": 575, "html_attributions": ["<a href=\"https://maps.google.com/maps/contrib/115627967140723776353\">A Google User</a>"], "photo_reference": "ATtYBwKSSUO1asec_8jNkaQWoQyD9-i3BFVNbqQBe8KPJIdTOHtVBY9GjNlZB1QKbz-gfQ1lxH5JnCzRl9mw4n2tXieUWFcR8bm3XBGQbCtFjxmW1nx1fs1izTbuo0sMASO7mLDlOBFUWc3M0blCcN6a6bP5RkD90-CKH2D1NbcHKaUDadnS", "width": 1024}], "place_id": "ChIJ-QY42XcHQYgRcFRJZMWWDOc", "plus_code": {"compound_code": "3P3R+QV Cincinnati, Ohio, United States", "global_code": "86FQ3P3R+QV"}, "rating": 4.9, "reference": "ChIJ-QY42XcHQYgRcFRJZMWWDOc", "types": ["plumber", "general_contractor", "point_of_interest", "establishment"], "user_ratings_total": 1767}, {"business_status": "OPERATIONAL", "formatted_address": "1728 OH-125, Amelia, OH 45102, United States", "geometry": {"location": {"lat": 39.0199869, "lng": -84.2056592}, "viewport": {"northeast": {"lat": 39.02122717989272, "lng": -84.20434252010728}, "southwest": {"lat": 39.01852752010728, "lng": -84.20704217989272}}}, "icon": "https://maps.gstatic.com/mapfiles/place_api/icons/v1/png_71/generic_business-71.png", "name": "Ammerman Heating & Cooling - HVAC Contractor, HVAC Repair, HVAC Replacement, Home Heating Systems & Heating Service in Amelia, OH", "opening_hours": {"open_now": true}, "photos": [{"height": 1645, "html_attributions": ["<a href=\"https://maps.google.com/maps/contrib/102653272602822433390\">A Google User</a>"], "photo_reference": "ATtYBwIzibtI7k548nR6BVcsQW9o4BpEzhiYDzlIxxojfsj4rnlaqdWdt5_DSRGUabmKtrMFIER5oqRLAFywLJOr98ArmW1AE3ygtySO6LmGTxRv1bHjX4YX_EMSqtZN5VhNS4IjAf4p5AIinGfMx8EiHtOv5ES2tQPmDuouME4hNuRM5LNR", "width": 800}], "place_id": "ChIJw4PdYdAHQYgRe2tHUBjzBag", "plus_code": {"compound_code": "2Q9V+XP Amelia, Ohio, United States", "global_code": "86FQ2Q9V+XP"}, "rating": 4.8, "reference": "ChIJw4PdYdAHQYgRe2tHUBjzBag", "types": ["general_contractor", "point_of_interest", "establishment"], "user_ratings_total": 93}, {"business_status": "OPERATIONAL", "formatted_address": "1815 E Ohio Pike, Amelia, OH 45102, United States", "geometry": {"location": {"lat": 39.0152284, "lng": -84.19892209999999}, "viewport": {"northeast": {"lat": 39.01690272989272, "lng": -84.19730162010728}, "southwest": {"lat": 39.01420307010728, "lng": -84.20000127989273}}}, "icon": "https://maps.gstatic.com/mapfiles/place_api/icons/v1/png_71/shopping-71.png", "name": "Walmart Supercenter", "opening_hours": {"open_now": true}, "photos": [{"height": 600, "html_attributions": ["<a href=\"https://maps.google.com/maps/contrib/106527833682514929295\">Walmart Supercenter</a>"], "photo_reference": "ATtYBwLjDavPlrdeBbOxVcfO7R5mzj2xMxkZFcXJ-0tcz10v_Vw82OlRMwIlqVDsfjV1OzbB9yjBryy999QArvbeCHSpTxlmmnqm8j0Lm2F9QvtzyQPNXv4aOOOezY-Z8mpcrhqX5luKNG_k7e7NOz-6agYKptBisDOpAHNhELB0_7GOa0fq", "width": 1067}], "place_id": "ChIJ-Vx7ghwGQYgRLTkTcRJTjPE", "plus_code": {"compound_code": "2R82+3C Amelia, Ohio, United States", "global_code": "86FQ2R82+3C"}, "price_level": 1, "rating": 3.6, "reference": "ChIJ-Vx7ghwGQYgRLTkTcRJTjPE", "types": ["department_store", "supermarket", "grocery_or_supermarket", "electronics_store", "home_goods_store", "food", "point_of_interest", "clothing_store", "store", "establishment"], "user_ratings_total": 2386}, {"business_status": "OPERATIONAL", "formatted_address": "1186 Emery Ridge Dr, Batavia, OH 45103, United States", "geometry": {"location": {"lat": 39.108521, "lng": -84.23581390000001}, "viewport": {"northeast": {"lat": 39.10978457989273, "lng": -84.23455857010728}, "southwest": {"lat": 39.10708492010728, "lng": -84.23725822989273}}}, "icon": "https://maps.gstatic.com/mapfiles/place_api/icons/v1/png_71/generic_business-71.png", "name": "Royse Lawn Care", "opening_hours": {"open_now": true}, "photos": [{"height": 1200, "html_attributions": ["<a href=\"https://maps.google.com/maps/contrib/104598051448964562820\">A Google User</a>"], "photo_reference": "ATtYBwLlj1UGz7g8oDymDsMGRtKwh9O3bX1ZKjD7awIyLLaeEiXUq-47z4JndgpR3jepw6ViiOT87-7fFpmQqX04WuxNNZIH8NiDIXTevgVnMTBQ9NVGJebzsrzYUKPglv0KNr9mbDQdSyLOZ809JX5PSoi3HCLZI-iDyK7Ntlug-4wpaztB", "width": 1798}], "place_id": "ChIJK4tQ0vAeQYgR-ScEQJqGwpw", "plus_code": {"compound_code": "4Q57+CM Batavia, Ohio, United States", "global_code": "86FQ4Q57+CM"}, "rating": 5, "reference": "ChIJK4tQ0vAeQYgR-ScEQJqGwpw", "types": ["home_goods_store", "point_of_interest", "store", "establishment"], "user_ratings_total": 34}, {"business_status": "OPERATIONAL", "formatted_address": "2035 Whispering Willow Ln, Amelia, OH 45102, United States", "geometry": {"location": {"lat": 39.0164733, "lng": -84.17775}, "viewport": {"northeast": {"lat": 39.01778467989272, "lng": -84.17624257010728}, "southwest": {"lat": 39.01508502010728, "lng": -84.17894222989273}}}, "icon": "https://maps.gstatic.com/mapfiles/place_api/icons/v1/png_71/generic_business-71.png", "name": "Phyxter", "opening_hours": {"open_now": true}, "place_id": "ChIJV8To_50FQYgRA9xqpYP-jWg", "plus_code": {"compound_code": "2R8C+HV Amelia, Ohio, United States", "global_code": "86FQ2R8C+HV"}, "rating": 0, "reference": "ChIJV8To_50FQYgRA9xqpYP-jWg", "types": ["general_contractor", "point_of_interest", "establishment"], "user_ratings_total": 0}, {"business_status": "OPERATIONAL", "formatted_address": "520 Ohio Pike, Cincinnati, OH 45255, United States", "geometry": {"location": {"lat": 39.073116, "lng": -84.304841}, "viewport": {"northeast": {"lat": 39.07420707989272, "lng": -84.30321882010728}, "southwest": {"lat": 39.07150742010728, "lng": -84.30591847989271}}}, "icon": "https://maps.gstatic.com/mapfiles/place_api/icons/v1/png_71/generic_business-71.png", "name": "Home Services at The Home Depot", "opening_hours": {"open_now": true}, "photos": [{"height": 3507, "html_attributions": ["<a href=\"https://maps.google.com/maps/contrib/111599305628939601520\">Home Services at The Home Depot</a>"], "photo_reference": "ATtYBwIoqdKxdF_aaXsNf8jNzEguaJNWAt-gCPeiKRwZ__SaeUn4_Ye9JOATJVLcotSfZPmy0gaB4gYxP5cj0It3CwC58ngQuX2VuFVOHw8Vh30mTXYUWrUFqCEiR6ImnCNeGCwf9Sw-j53_4yLWJC5ZowG9gf_m8Uuhohh_8J8rkZxT6WV1", "width": 5260}], "place_id": "ChIJA3G0R6SpQYgRtmhlTFxUzpo", "plus_code": {"compound_code": "3MFW+63 Cincinnati, Ohio, United States", "global_code": "86FQ3MFW+63"}, "price_level": 1, "rating": 3.4, "reference": "ChIJA3G0R6SpQYgRtmhlTFxUzpo", "types": ["painter", "electrician", "plumber", "general_contractor", "point_of_interest", "establishment"], "user_ratings_total": 9}, {"business_status": "OPERATIONAL", "formatted_address": "1159 OH-32, Batavia, OH 45103, United States", "geometry": {"location": {"lat": 39.089264, "lng": -84.24727000000001}, "viewport": {"northeast": {"lat": 39.09065922989272, "lng": -84.24590182010728}, "southwest": {"lat": 39.08795957010728, "lng": -84.24860147989271}}}, "icon": "https://maps.gstatic.com/mapfiles/place_api/icons/v1/png_71/shopping-71.png", "name": "Tractor Supply Co.", "opening_hours": {"open_now": true}, "photos": [{"height": 4032, "html_attributions": ["<a href=\"https://maps.google.com/maps/contrib/116010447315883804282\">Matt Frizzell</a>"], "photo_reference": "ATtYBwJwHP9Jy1_W8uNng7nm88NMduif_fPkPXhY0hi75DA82mU1CssKGktGh8pE88ySDwvkAwRZfzlKaoIQgj4lSCVf8VkZFAdHujR6l6Rfcz-vRAMmXSMh7AQDztrxwTR9LmJc8CGsef6XV4jATHSzmDk43U2CPUUn389RffnYVXR-6-16", "width": 3024}], "place_id": "ChIJYSrHQTYHQYgRfGWssPhho3c", "plus_code": {"compound_code": "3QQ3+P3 Batavia, Ohio, United States", "global_code": "86FQ3QQ3+P3"}, "price_level": 2, "rating": 4.4, "reference": "ChIJYSrHQTYHQYgRfGWssPhho3c", "types": ["hardware_store", "home_goods_store", "point_of_interest", "store", "establishment"], "user_ratings_total": 616}, {"business_status": "OPERATIONAL", "formatted_address": "618 Mt Moriah Dr, Cincinnati, OH 45245, United States", "geometry": {"location": {"lat": 39.0695428, "lng": -84.2956315}, "viewport": {"northeast": {"lat": 39.07074362989272, "lng": -84.29431477010728}, "southwest": {"lat": 39.06804397010728, "lng": -84.29701442989273}}}, "icon": "https://maps.gstatic.com/mapfiles/place_api/icons/v1/png_71/shopping-71.png", "name": "Lowe's Home Improvement", "opening_hours": {"open_now": true}, "photos": [{"height": 270, "html_attributions": ["<a href=\"https://maps.google.com/maps/contrib/116688030446081004637\">Lowe&#39;s Home Improvement</a>"], "photo_reference": "ATtYBwIsEmf2HIYD-r31uT4Ci3C-KiJWs_DHkhDUaYCVbCta-uhDfgF4pXZmkaf0x9RFMCNetwAwGUHEjMoEKNHzsc56eBgXc6frG4HzJ6JXdFzWYbIrG1-RpkhgJxux3v5-di27-9WNodNVdQWXwfzfWJRe-_rHPnttNu8xGn3kTlNKlov0", "width": 480}], "place_id": "ChIJSXMF-cepQYgRmBJO_FT1dKY", "plus_code": {"compound_code": "3P93+RP Cincinnati, Ohio, United States", "global_code": "86FQ3P93+RP"}, "price_level": 1, "rating": 3.9, "reference": "ChIJSXMF-cepQYgRmBJO_FT1dKY", "types": ["hardware_store", "furniture_store", "home_goods_store", "point_of_interest", "store", "establishment"], "user_ratings_total": 1469}, {"business_status": "OPERATIONAL", "formatted_address": "4498 Mt Carmel Tobasco Rd, Cincinnati, OH 45244, United States", "geometry": {"location": {"lat": 39.1024296, "lng": -84.29854510000001}, "viewport": {"northeast": {"lat": 39.10382122989272, "lng": -84.29766117010729}, "southwest": {"lat": 39.10112157010728, "lng": -84.30036082989272}}}, "icon": "https://maps.gstatic.com/mapfiles/place_api/icons/v1/png_71/generic_business-71.png", "name": "Perry Kelly Plumbing Inc", "opening_hours": {"open_now": true}, "place_id": "ChIJVWjyiiaqQYgRBoboMbG2fDw", "plus_code": {"compound_code": "4P22+XH Cincinnati, Ohio, United States", "global_code": "86FQ4P22+XH"}, "rating": 3.6, "reference": "ChIJVWjyiiaqQYgRBoboMbG2fDw", "types": ["plumber", "point_of_interest", "establishment"], "user_ratings_total": 12}, {"business_status": "OPERATIONAL", "formatted_address": "756 Old State Rte 74, Cincinnati, OH 45245, United States", "geometry": {"location": {"lat": 39.10647230000001, "lng": -84.27957219999999}, "viewport": {"northeast": {"lat": 39.10774082989272, "lng": -84.27812182010727}, "southwest": {"lat": 39.10504117010727, "lng": -84.28082147989271}}}, "icon": "https://maps.gstatic.com/mapfiles/place_api/icons/v1/png_71/generic_business-71.png", "name": "One Hour Heating & Air Conditioning of Cincinnati", "opening_hours": {"open_now": true}, "photos": [{"height": 861, "html_attributions": ["<a href=\"https://maps.google.com/maps/contrib/113655140653306617349\">One Hour Heating and Air</a>"], "photo_reference": "ATtYBwLtor2B_g5wKJ25uCCt32ig0gBGOFX4GbsSONgvu4d-dxU1LTLyF97Z1erWR-_CWDvSc_pDUeSfm54MdzERsGAH-FRmt-W_5SAduRMbytmPrh5WlgkeL4hmdtv7BFNPVWiZfcJy4ZiTISMrEJR_MYethzKG1S_Ypd0dLVWXnPPk--lm", "width": 1350}], "place_id": "ChIJAQAAAJSyQYgRFbxl_wQjinU", "plus_code": {"compound_code": "4P4C+H5 Cincinnati, Ohio, United States", "global_code": "86FQ4P4C+H5"}, "rating": 4.8, "reference": "ChIJAQAAAJSyQYgRFbxl_wQjinU", "types": ["general_contractor", "point_of_interest", "establishment"], "user_ratings_total": 1625}, {"business_status": "OPERATIONAL", "formatted_address": "8950 Glendale Milford Rd, Loveland, OH 45140, United States", "geometry": {"location": {"lat": 39.22695, "lng": -84.319268}, "viewport": {"northeast": {"lat": 39.22835712989272, "lng": -84.31810572010727}, "southwest": {"lat": 39.22565747010728, "lng": -84.32080537989272}}}, "icon": "https://maps.gstatic.com/mapfiles/place_api/icons/v1/png_71/generic_business-71.png", "name": "BEST Plumbing Service of Cincinnati", "opening_hours": {"open_now": true}, "photos": [{"height": 1853, "html_attributions": ["<a href=\"https://maps.google.com/maps/contrib/105822940413984714130\">A Google User</a>"], "photo_reference": "ATtYBwI-FxEM4AZTwhAfg-fkF5MVCgwpS0pJ9KFONnRKmAXF6mV9zEVvbHwggifgmqv_7iPMbqRuggVp49Hr2l34oZEuc7lbAg-LV3B26281mahWqIvqf7QJGAwFej5gOZBghe8f_6hnhXgWMsEvawV7r9-MLe4NJ_XEmfsCbMUHHq7hSV4", "width": 2779}], "place_id": "ChIJ1TzXFcRSQIgRXn1NnUvB10s", "plus_code": {"compound_code": "6MGJ+Q7 Loveland, Ohio, United States", "global_code": "86FQ6MGJ+Q7"}, "rating": 4.9, "reference": "ChIJ1TzXFcRSQIgRXn1NnUvB10s", "types": ["plumber", "point_of_interest", "establishment"], "user_ratings_total": 598}, {"business_status": "OPERATIONAL", "formatted_address": "4538 Camberwell Rd, Cincinnati, OH 45209, United States", "geometry": {"location": {"lat": 39.159095, "lng": -84.41778099999999}, "viewport": {"northeast": {"lat": 39.16039862989273, "lng": -84.41656247010727}, "southwest": {"lat": 39.15769897010729, "lng": -84.4192621298927}}}, "icon": "https://maps.gstatic.com/mapfiles/place_api/icons/v1/png_71/generic_business-71.png", "name": "Apollo Home", "opening_hours": {"open_now": true}, "photos": [{"height": 467, "html_attributions": ["<a href=\"https://maps.google.com/maps/contrib/117819079729672606614\">A Google User</a>"], "photo_reference": "ATtYBwKWqBmLYYlI5EIVWZ2w5-q4SPtp6Y97LGyHjy1EuO25Hh8NT4NgNcawu70Ze4EM2pLvTkmEDUGUHUweqX6v4PwKGDVdLdKSkI_4xuo511wE4GYu8VeHuVXWZF_icY7154J5vQbJB0SNEugU-_3tSZJ4vvSjtdUCg2ZIMyONkcqc2av1", "width": 700}], "place_id": "ChIJ87KmDeiyQYgRq8Mxz5Rpb9A", "plus_code": {"compound_code": "5H5J+JV Cincinnati, Ohio, United States", "global_code": "86FQ5H5J+JV"}, "rating": 4.8, "reference": "ChIJ87KmDeiyQYgRq8Mxz5Rpb9A", "types": ["electrician", "plumber", "general_contractor", "point_of_interest", "establishment"], "user_ratings_total": 4568}, {"business_status": "OPERATIONAL", "formatted_address": "2 E Main St, Amelia, OH 45102, United States", "geometry": {"location": {"lat": 39.0277608, "lng": -84.21776969999999}, "viewport": {"northeast": {"lat": 39.02914367989271, "lng": -84.21647157010727}, "southwest": {"lat": 39.02644402010727, "lng": -84.21917122989271}}}, "icon": "https://maps.gstatic.com/mapfiles/place_api/icons/v1/png_71/shopping-71.png", "name": "Carter Home Improvement", "opening_hours": {"open_now": true}, "place_id": "ChIJlRJw9TkGQYgRk_Tyf8ALznE", "plus_code": {"compound_code": "2QHJ+4V Amelia, Ohio, United States", "global_code": "86FQ2QHJ+4V"}, "rating": 4, "reference": "ChIJlRJw9TkGQYgRk_Tyf8ALznE", "types": ["home_goods_store", "point_of_interest", "store", "establishment"], "user_ratings_total": 1}, {"business_status": "OPERATIONAL", "formatted_address": "897 Loveland Madeira Rd, Loveland, OH 45140, United States", "geometry": {"location": {"lat": 39.259981, "lng": -84.2726094}, "viewport": {"northeast": {"lat": 39.26137612989272, "lng": -84.27115372010728}, "southwest": {"lat": 39.25867647010728, "lng": -84.27385337989273}}}, "icon": "https://maps.gstatic.com/mapfiles/place_api/icons/v1/png_71/generic_business-71.png", "name": "Oasis Turf & Tree", "opening_hours": {"open_now": true}, "photos": [{"height": 825, "html_attributions": ["<a href=\"https://maps.google.com/maps/contrib/111131328778934296320\">A Google User</a>"], "photo_reference": "ATtYBwIZbsTmRreTeMdJH0UxjUIbr-aIr0z8XBNfxNcsDyaxjBbrDHBApilGXww8AJxRfoXC-b7Y7xtHNTeGvX386nt5fvUbJ_m7aDl8FHEQMSnPjUCho3xRkCQQZrB4ARaZGLYZeE9Kta8tV7-TgF-6Nr59yLbqatDy9krLrSBsy3WDy4jw", "width": 1238}], "place_id": "ChIJSUwfjMm-QYgRajldswo-hpo", "plus_code": {"compound_code": "7P5G+XX Loveland, Ohio, United States", "global_code": "86FQ7P5G+XX"}, "rating": 4.6, "reference": "ChIJSUwfjMm-QYgRajldswo-hpo", "types": ["home_goods_store", "point_of_interest", "store", "establishment"], "user_ratings_total": 222}, {"business_status": "OPERATIONAL", "formatted_address": "520 Ohio Pike, Cincinnati, OH 45255, United States", "geometry": {"location": {"lat": 39.0730445, "lng": -84.30477979999999}, "viewport": {"northeast": {"lat": 39.07417132989272, "lng": -84.30318822010727}, "southwest": {"lat": 39.07147167010728, "lng": -84.30588787989271}}}, "icon": "https://maps.gstatic.com/mapfiles/place_api/icons/v1/png_71/shopping-71.png", "name": "Garden Center at The Home Depot", "opening_hours": {"open_now": true}, "photos": [{"height": 780, "html_attributions": ["<a href=\"https://maps.google.com/maps/contrib/117261220648962665901\">Garden Center at The Home Depot</a>"], "photo_reference": "ATtYBwJC3_cysUfgc_T6zz9eJG5MXazNx5u3Q-2U5ZuheUcr3mBM2REglIe5vzv1PQ_XW8g1M2HbiRsEsRVTNfjgTRZm7qaSZEIekK0TUduT0DBibZ4rzYfhbtUZMflgKdvBXv3dhAksvC3RLdiE3qDOFPPBRpqE7F-5yOG5PmFDKW9xbS7o", "width": 780}], "place_id": "ChIJ_VLjhaOpQYgRARf3n3ZP86I", "plus_code": {"compound_code": "3MFW+63 Cincinnati, Ohio, United States", "global_code": "86FQ3MFW+63"}, "price_level": 1, "rating": 4.5, "reference": "ChIJ_VLjhaOpQYgRARf3n3ZP86I", "types": ["furniture_store", "home_goods_store", "general_contractor", "point_of_interest", "store", "establishment"], "user_ratings_total": 2}, {"business_status": "OPERATIONAL", "formatted_address": "609 Nordyke Rd, Cincinnati, OH 45255, United States", "geometry": {"location": {"lat": 39.04791900000001, "lng": -84.32009900000001}, "viewport": {"northeast": {"lat": 39.04921822989272, "lng": -84.31817257010727}, "southwest": {"lat": 39.04651857010728, "lng": -84.32087222989271}}}, "icon": "https://maps.gstatic.com/mapfiles/place_api/icons/v1/png_71/generic_business-71.png", "name": "A L Miller Plumbing", "place_id": "ChIJoWZHh_qoQYgRXj07CB_q35s", "plus_code": {"compound_code": "2MXH+5X Cincinnati, Ohio, United States", "global_code": "86FQ2MXH+5X"}, "rating": 5, "reference": "ChIJoWZHh_qoQYgRXj07CB_q35s", "types": ["plumber", "point_of_interest", "establishment"], "user_ratings_total": 2}, {"business_status": "OPERATIONAL", "formatted_address": "1094 OH-28, Milford, OH 45150, United States", "geometry": {"location": {"lat": 39.1979035, "lng": -84.23388279999999}, "viewport": {"northeast": {"lat": 39.19903937989272, "lng": -84.23241987010726}, "southwest": {"lat": 39.19633972010728, "lng": -84.23511952989271}}}, "icon": "https://maps.gstatic.com/mapfiles/place_api/icons/v1/png_71/generic_business-71.png", "name": "Home Services at The Home Depot", "opening_hours": {"open_now": true}, "photos": [{"height": 3507, "html_attributions": ["<a href=\"https://maps.google.com/maps/contrib/110860972821252040251\">Home Services at The Home Depot</a>"], "photo_reference": "ATtYBwIPR1AbhnytQJGhN2OORRW-JeixbK2-5hu7pwLhNSfQywnMW2AXk8E3hiH27K-5ken8dFhQ8vryZ1fGxM4ayxpgyEbfsN7iXIpOTJx3qdv-2t1RkIOKSbqxA6UgflgU3Eel4bKzmYFiyPFhIRxak4xftsqHn141oH9RsY18txF7DUaE", "width": 5260}], "place_id": "ChIJK895k8n_QIgRIgCq-9P6k5U", "plus_code": {"compound_code": "5QX8+5C Milford, Ohio, United States", "global_code": "86FQ5QX8+5C"}, "price_level": 1, "rating": 4, "reference": "ChIJK895k8n_QIgRIgCq-9P6k5U", "types": ["painter", "electrician", "plumber", "general_contractor", "point_of_interest", "establishment"], "user_ratings_total": 23}, {"business_status": "OPERATIONAL", "formatted_address": "4370 Eastgate Square Dr, Cincinnati, OH 45245, United States", "geometry": {"location": {"lat": 39.0901782, "lng": -84.2697309}, "viewport": {"northeast": {"lat": 39.09181977989272, "lng": -84.26818722010727}, "southwest": {"lat": 39.08912012010728, "lng": -84.27088687989271}}}, "icon": "https://maps.gstatic.com/mapfiles/place_api/icons/v1/png_71/shopping-71.png", "name": "Walmart Supercenter", "opening_hours": {"open_now": true}, "photos": [{"height": 600, "html_attributions": ["<a href=\"https://maps.google.com/maps/contrib/114299723495723197144\">Walmart Supercenter</a>"], "photo_reference": "ATtYBwKEkHjSJ4Qc6GBoAkRNxqYnrb7artENshJdjj9sSspiRXK5ZjGtCydkEkezdRgR3dQgN52f5cO4QvFzC-uj4jj-WkzJWb8YEKeYtQvoXy2VvMhofglgpF-I1tsigN-JAN5SMhJfUAxKLQyBW6enPWt7KoULear5aeegs_rTdmIfGSUJ", "width": 1067}], "place_id": "ChIJbeSdD1YHQYgRzh0DGJPpll8", "plus_code": {"compound_code": "3PRJ+34 Cincinnati, Ohio, United States", "global_code": "86FQ3PRJ+34"}, "price_level": 1, "rating": 3.7, "reference": "ChIJbeSdD1YHQYgRzh0DGJPpll8", "types": ["department_store", "supermarket", "grocery_or_supermarket", "electronics_store", "home_goods_store", "food", "point_of_interest", "clothing_store", "store", "establishment"], "user_ratings_total": 3891}, {"business_status": "OPERATIONAL", "formatted_address": "5909 Stewart Ave, Cincinnati, OH 45227, United States", "geometry": {"location": {"lat": 39.174556, "lng": -84.397443}, "viewport": {"northeast": {"lat": 39.17588917989271, "lng": -84.39596542010727}, "southwest": {"lat": 39.17318952010727, "lng": -84.39866507989271}}}, "icon": "https://maps.gstatic.com/mapfiles/place_api/icons/v1/png_71/generic_business-71.png", "name": "Nelson Comfort", "opening_hours": {"open_now": true}, "photos": [{"height": 1365, "html_attributions": ["<a href=\"https://maps.google.com/maps/contrib/115597230167589458399\">A Google User</a>"], "photo_reference": "ATtYBwKeEpEKvlSyafQq8vcOOyd7YJTvzrEv6lDuEAshSopcQ2_wYJjetJ70QvTGGj-9i13i5DbA9VxEHh_T6iDuggOuYzalQZ_tjfQU6eTJNbhd9Aksh7QC87SbJatJIB7E3zBLtu0fyM-3yZMniLEbI9mfEuDteDbOCBqN8TzV1TKEgqA7", "width": 2048}], "place_id": "ChIJMQcUwCetQYgRBXIK-f14Rs4", "plus_code": {"compound_code": "5JF3+R2 Cincinnati, Ohio, United States", "global_code": "86FQ5JF3+R2"}, "rating": 4.7, "reference": "ChIJMQcUwCetQYgRBXIK-f14Rs4", "types": ["general_contractor", "point_of_interest", "store", "establishment"], "user_ratings_total": 295}], "status": "OK"}],[{"html_attributions": [], "next_page_token": "ATtYBwIWCqpQe11Y4G6Hc_7uN_h1O_ZsCOaedZr9NgvD4-AGNqOwyhSwRfXmy8fmTECXxApu0UPTQQ-XdYvgE3UvL7-Gu04a9SFeQ_z0YRdv61GWoiDI12qQEGKTD69nNqR7GOGH4C5X6B9ROgtPEFno-DffWgVIuVCRk6szalnDJPrZ3WwiYEWdzniBlibfguGMLLn9S-oa-MSH4xwMGateBBVe2ngEgXv7YGx7pqHQ481_I20CVvUieDKuJP2kPfsAlIOnweFHZuD9w9L8LXiYxLSusW-Kgxo22bYLmO4yTK-pMDpQvBxwSDwKm1X-42wYZKkN6jeT3lQJCVl9LqW-V2nbS-wEaytfgN5xEREyy9my-SZDOOvJJBhZiYDi9vuV02uTvZbvE2tdJjHoWViwwhhYPmoNOLOfYqmOgSqLUeSgYpNth4Gi5Nhnx6pV2eljkco6Fme2vfsvAZTVlHvqUdpVUhXcaUmUvmdPK-UQHmsCPutV2qh6H3eNcYQMypf-MNClYmAVlJTp_Eqkwv2IpC0T4C5NC05IOKNbwX5rw9whd3yS3h7oBZ19JXdBene9", "results": [{"business_status": "OPERATIONAL", "formatted_address": "1231 OH-54, Urbana, OH 43078, United States", "geometry": {"location": {"lat": 40.0924938, "lng": -83.73229549999999}, "viewport": {"northeast": {"lat": 40.09387167989273, "lng": -83.73136247010727}, "southwest": {"lat": 40.09117202010729, "lng": -83.73406212989272}}}, "icon": "https://maps.gstatic.com/mapfiles/place_api/icons/v1/png_71/generic_business-71.png", "name": "Snyder's Heating & Cooling", "opening_hours": {"open_now": true}, "place_id": "ChIJZZMaq31IP4gRiGWcI5OW5uo", "plus_code": {"compound_code": "37R9+X3 Urbana, Ohio, United States", "global_code": "86GR37R9+X3"}, "rating": 4.1, "reference": "ChIJZZMaq31IP4gRiGWcI5OW5uo", "types": ["general_contractor", "point_of_interest", "establishment"], "user_ratings_total": 14}, {"business_status": "OPERATIONAL", "formatted_address": "Urbana, OH 43078, United States", "geometry": {"location": {"lat": 40.1083794, "lng": -83.7522977}, "viewport": {"northeast": {"lat": 40.10973397989273, "lng": -83.75100127010728}, "southwest": {"lat": 40.10703432010729, "lng": -83.75370092989272}}}, "icon": "https://maps.gstatic.com/mapfiles/place_api/icons/v1/png_71/generic_business-71.png", "name": "Dan's Plumbing LLC", "place_id": "ChIJi4yryHpIP4gRtUitOF_l2BM", "plus_code": {"compound_code": "465X+93 Urbana, Ohio, United States", "global_code": "86GR465X+93"}, "rating": 2.5, "reference": "ChIJi4yryHpIP4gRtUitOF_l2BM", "types": ["plumber", "point_of_interest", "establishment"], "user_ratings_total": 4}, {"business_status": "OPERATIONAL", "formatted_address": "1840 E US Hwy 36, Urbana, OH 43078, United States", "geometry": {"location": {"lat": 40.1084801, "lng": -83.7160684}, "viewport": {"northeast": {"lat": 40.10950077989272, "lng": -83.71447885}, "southwest": {"lat": 40.10680112010728, "lng": -83.71733425}}}, "icon": "https://maps.gstatic.com/mapfiles/place_api/icons/v1/png_71/shopping-71.png", "name": "Walmart Supercenter", "opening_hours": {"open_now": true}, "photos": [{"height": 600, "html_attributions": ["<a href=\"https://maps.google.com/maps/contrib/108831800817073654478\">Walmart Supercenter</a>"], "photo_reference": "ATtYBwJI9xrtSo-dX1FjxjF-7IkfQYWhsq0PJnFCU712nVYEGICCqyOeNXEZCZTv16DZ72JNcL90Z81fIaAyePANSYl_wXH4lMH971F85KsDicCYED-oxJuNr4xNt1xHhT4Ko6o5XQg3JW8bKIwjIQlkNPsvVbTf6ElHOQJ_Bkf-kZMNTzZD", "width": 1067}], "place_id": "ChIJtxvF2q1JP4gRmBPgsjmP668", "plus_code": {"compound_code": "475M+9H Urbana, Ohio, United States", "global_code": "86GR475M+9H"}, "price_level": 1, "rating": 3.8, "reference": "ChIJtxvF2q1JP4gRmBPgsjmP668", "types": ["department_store", "supermarket", "grocery_or_supermarket", "electronics_store", "home_goods_store", "food", "point_of_interest", "clothing_store", "store", "establishment"], "user_ratings_total": 1134}, {"business_status": "OPERATIONAL", "formatted_address": "Urbana, OH 43078, United States", "geometry": {"location": {"lat": 40.0969763, "lng": -83.7328534}, "viewport": {"northeast": {"lat": 40.09832067989272, "lng": -83.73141582010727}, "southwest": {"lat": 40.09562102010727, "lng": -83.73411547989272}}}, "icon": "https://maps.gstatic.com/mapfiles/place_api/icons/v1/png_71/generic_business-71.png", "name": "Barr's Heating & Cooling", "photos": [{"height": 4128, "html_attributions": ["<a href=\"https://maps.google.com/maps/contrib/115897236031238749122\">A Google User</a>"], "photo_reference": "ATtYBwLl0YlantF16v-mBQFheF0oyBfLz4O_dh5x5ZcvST4Z3ayElXaCmRtpXmfFyiIomkO_VXauz_jcqvFGDMDZGrM1IvdzxdTDnu6plzdteaxBP-bs49dR_ftBwqxq-bi0ExAmVtwCEJGhDgMUvOc58MvROh1KaQF85VKZXwctKdenkDed", "width": 2322}], "place_id": "ChIJ4996sfdIP4gRV_sJPDTzYwg", "plus_code": {"compound_code": "37W8+QV Urbana, Ohio, United States", "global_code": "86GR37W8+QV"}, "rating": 4.3, "reference": "ChIJ4996sfdIP4gRV_sJPDTzYwg", "types": ["general_contractor", "point_of_interest", "establishment"], "user_ratings_total": 6}, {"business_status": "OPERATIONAL", "formatted_address": "795 Scioto St, Urbana, OH 43078, United States", "geometry": {"location": {"lat": 40.1065658, "lng": -83.7339476}, "viewport": {"northeast": {"lat": 40.10810027989273, "lng": -83.73257787010726}, "southwest": {"lat": 40.10540062010728, "lng": -83.73527752989271}}}, "icon": "https://maps.gstatic.com/mapfiles/place_api/icons/v1/png_71/shopping-71.png", "name": "Williams Hardware", "opening_hours": {"open_now": true}, "photos": [{"height": 406, "html_attributions": ["<a href=\"https://maps.google.com/maps/contrib/114197621936365056553\">A Google User</a>"], "photo_reference": "ATtYBwIs-3ak8EYrQZjJANAEGWzGhtA28drULmC6fuBdvjM2UyZnM6yJygzDDP9gAyWnvdurPOFiW2s5v1ZOU9ET6Cl_WVwhjoAEBoY0Z7D5jV5p7PJ6aVPnV9NrPkavaCjmvf_iS5G4ofQzHLQ-yRBPm1iIhkhPwXhLeZZ1cPX_JxSW51Uq", "width": 960}], "place_id": "ChIJa0GODltIP4gR3IWnxaWHzsc", "plus_code": {"compound_code": "4748+JC Urbana, Ohio, United States", "global_code": "86GR4748+JC"}, "rating": 4.8, "reference": "ChIJa0GODltIP4gR3IWnxaWHzsc", "types": ["hardware_store", "home_goods_store", "point_of_interest", "store", "establishment"], "user_ratings_total": 57}, {"business_status": "OPERATIONAL", "formatted_address": "1711 US-36, Urbana, OH 43078, United States", "geometry": {"location": {"lat": 40.1055802, "lng": -83.718143}, "viewport": {"northeast": {"lat": 40.10711167989272, "lng": -83.71677557010729}, "southwest": {"lat": 40.10441202010727, "lng": -83.71947522989272}}}, "icon": "https://maps.gstatic.com/mapfiles/place_api/icons/v1/png_71/shopping-71.png", "name": "S & L Home Center", "opening_hours": {"open_now": true}, "place_id": "ChIJcc_-FclHP4gRKyeISfcVEN8", "plus_code": {"compound_code": "474J+6P Urbana, Ohio, United States", "global_code": "86GR474J+6P"}, "rating": 5, "reference": "ChIJcc_-FclHP4gRKyeISfcVEN8", "types": ["hardware_store", "home_goods_store", "point_of_interest", "store", "establishment"], "user_ratings_total": 2}, {"business_status": "OPERATIONAL", "formatted_address": "1637 E US Hwy 36 Unit 1a, Urbana, OH 43078, United States", "geometry": {"location": {"lat": 40.1057, "lng": -83.72019}, "viewport": {"northeast": {"lat": 40.10705442989273, "lng": -83.71888722010728}, "southwest": {"lat": 40.10435477010728, "lng": -83.72158687989273}}}, "icon": "https://maps.gstatic.com/mapfiles/place_api/icons/v1/png_71/shopping-71.png", "name": "Tractor Supply Co.", "opening_hours": {"open_now": true}, "photos": [{"height": 1836, "html_attributions": ["<a href=\"https://maps.google.com/maps/contrib/109502163909876456945\">A Google User</a>"], "photo_reference": "ATtYBwILZtOXVB1hIIbEmELBveXLKo9bYBx_apwggf_CFPx5vX59YYLdP1OrTkPFP7QHA8wFWXBL-jVxOiwTZgIg9iMNSniq9Qkbsaj87_2NgCw6smbhVoOgwrTQg6QX7cXtDrRzFvNAXf5LGEPox5iUmmw1menv7YdWh_dEi8bvKXFbIaN9", "width": 3264}], "place_id": "ChIJK3q8GK1JP4gRh6HeRNMw0UI", "plus_code": {"compound_code": "474H+7W Urbana, Ohio, United States", "global_code": "86GR474H+7W"}, "price_level": 2, "rating": 4.4, "reference": "ChIJK3q8GK1JP4gRh6HeRNMw0UI", "types": ["hardware_store", "home_goods_store", "food", "point_of_interest", "store", "establishment"], "user_ratings_total": 273}, {"business_status": "OPERATIONAL", "formatted_address": "425 W Light St, Urbana, OH 43078, United States", "geometry": {"location": {"lat": 40.1173223, "lng": -83.7567863}, "viewport": {"northeast": {"lat": 40.11882297989272, "lng": -83.75542447010729}, "southwest": {"lat": 40.11612332010728, "lng": -83.75812412989272}}}, "icon": "https://maps.gstatic.com/mapfiles/place_api/icons/v1/png_71/generic_business-71.png", "name": "3C Contracting", "place_id": "ChIJmZF3hHNIP4gR75m3v1tcU68", "plus_code": {"compound_code": "468V+W7 Urbana, Ohio, United States", "global_code": "86GR468V+W7"}, "rating": 0, "reference": "ChIJmZF3hHNIP4gR75m3v1tcU68", "types": ["general_contractor", "point_of_interest", "establishment"], "user_ratings_total": 0}, {"business_status": "OPERATIONAL", "formatted_address": "407 Washington Ave, Urbana, OH 43078, United States", "geometry": {"location": {"lat": 40.1119954, "lng": -83.7467503}, "viewport": {"northeast": {"lat": 40.11343167989273, "lng": -83.74539147010728}, "southwest": {"lat": 40.11073202010728, "lng": -83.74809112989273}}}, "icon": "https://maps.gstatic.com/mapfiles/place_api/icons/v1/png_71/generic_business-71.png", "name": "DeeCee's Mobile Power Washing LLC", "opening_hours": {"open_now": true}, "photos": [{"height": 1080, "html_attributions": ["<a href=\"https://maps.google.com/maps/contrib/109655054754368250988\">A Google User</a>"], "photo_reference": "ATtYBwLwhRDl-KF-i-4tX07aAc30N-bDrGER0ZiLR7pVnpcBmdrzl_q2d9LYvw6rvLMh35c7VgYX2tLapQe5JaiYy6Y0HAhwneI6zaAvHOvGPMBaSMm_PD_lHQkoAEZXFf3bmTJ9zg2o9GWrBWBAQubofoOsv7orhlr9jRel3ah_U8XXm-DN", "width": 1080}], "place_id": "ChIJ-3Qw8lpJP4gRiGwtkGEUkGI", "plus_code": {"compound_code": "4763+Q7 Urbana, Ohio, United States", "global_code": "86GR4763+Q7"}, "rating": 5, "reference": "ChIJ-3Qw8lpJP4gRiGwtkGEUkGI", "types": ["point_of_interest", "establishment"], "user_ratings_total": 1}, {"business_status": "OPERATIONAL", "formatted_address": "1880 N Bechtle Ave, Springfield, OH 45504, United States", "geometry": {"location": {"lat": 39.9497039, "lng": -83.8290987}, "viewport": {"northeast": {"lat": 39.95117067989272, "lng": -83.82796132010729}, "southwest": {"lat": 39.94847102010728, "lng": -83.83066097989273}}}, "icon": "https://maps.gstatic.com/mapfiles/place_api/icons/v1/png_71/generic_business-71.png", "name": "Home Services at The Home Depot", "opening_hours": {"open_now": true}, "photos": [{"height": 3507, "html_attributions": ["<a href=\"https://maps.google.com/maps/contrib/100041148981694116941\">Home Services at The Home Depot</a>"], "photo_reference": "ATtYBwLkZGYf3pQ_El4FwhOaGJDm73PK2IIu1dkRomhoQtDTB3hMagQnUuLk-lli9LszzrgjeQVyZRGPzln2MJOrG3_nv9dprGwMx7fKy6dtFvCUNrN3xe8gdr7XUd_4ppRRg0bmd1rAmX6iQnBkVRGMLAEG1zqpMxGLExJQbLNED-Ll1hNj", "width": 5260}], "place_id": "ChIJeXF2aXJbP4gRUM_G7rPrQ30", "plus_code": {"compound_code": "W5XC+V9 Springfield, Ohio, United States", "global_code": "86FRW5XC+V9"}, "price_level": 1, "rating": 4.5, "reference": "ChIJeXF2aXJbP4gRUM_G7rPrQ30", "types": ["painter", "electrician", "plumber", "general_contractor", "point_of_interest", "establishment"], "user_ratings_total": 8}, {"business_status": "OPERATIONAL", "formatted_address": "546 Boyce St, Urbana, OH 43078, United States", "geometry": {"location": {"lat": 40.115387, "lng": -83.7426893}, "viewport": {"northeast": {"lat": 40.11671257989273, "lng": -83.74134147010727}, "southwest": {"lat": 40.11401292010729, "lng": -83.74404112989272}}}, "icon": "https://maps.gstatic.com/mapfiles/place_api/icons/v1/png_71/generic_business-71.png", "name": "One Source Construction, Llc", "place_id": "ChIJK9JPPGpIP4gR8K0TcC5hFgs", "plus_code": {"compound_code": "4784+5W Urbana, Ohio, United States", "global_code": "86GR4784+5W"}, "rating": 1, "reference": "ChIJK9JPPGpIP4gR8K0TcC5hFgs", "types": ["general_contractor", "point_of_interest", "establishment"], "user_ratings_total": 2}, {"business_status": "OPERATIONAL", "formatted_address": "5451, 68 North Urbana Rd, Springfield, OH 45502, United States", "geometry": {"location": {"lat": 40.00374, "lng": -83.79831}, "viewport": {"northeast": {"lat": 40.00494912989272, "lng": -83.79657787010727}, "southwest": {"lat": 40.00224947010728, "lng": -83.79927752989272}}}, "icon": "https://maps.gstatic.com/mapfiles/place_api/icons/v1/png_71/shopping-71.png", "name": "Tractor Supply Co.", "opening_hours": {"open_now": true}, "photos": [{"height": 4000, "html_attributions": ["<a href=\"https://maps.google.com/maps/contrib/109460740570752044543\">Brandon Finch</a>"], "photo_reference": "ATtYBwKXdcNcAs1EC7DLMWGuws8LKe2CF8khaDgc67ciGMASutwWdHp4-SDYV5R4qOlKIkFTvYBXm2jDAzK_eC1UYdABuTV3_v4oMdRiIZxaGCeKw71pNkQO9a_akbnlJ4HgklUBLm6Nc_UWFkKq1aRxy9l7dh3nV9QArpxdij3qigbpjQG9", "width": 3000}], "place_id": "ChIJSTWWPhlFP4gRLyug6t-xYsA", "plus_code": {"compound_code": "2632+FM Springfield, Ohio, United States", "global_code": "86GR2632+FM"}, "price_level": 2, "rating": 4.5, "reference": "ChIJSTWWPhlFP4gRLyug6t-xYsA", "types": ["hardware_store", "home_goods_store", "point_of_interest", "store", "establishment"], "user_ratings_total": 259}, {"business_status": "OPERATIONAL", "formatted_address": "2982 Derr Rd, Springfield, OH 45503, United States", "geometry": {"location": {"lat": 39.9659582, "lng": -83.7839789}, "viewport": {"northeast": {"lat": 39.96731122989272, "lng": -83.78268542010727}, "southwest": {"lat": 39.96461157010727, "lng": -83.7853850798927}}}, "icon": "https://maps.gstatic.com/mapfiles/place_api/icons/v1/png_71/shopping-71.png", "name": "Downing's Hardware", "opening_hours": {"open_now": true}, "photos": [{"height": 1932, "html_attributions": ["<a href=\"https://maps.google.com/maps/contrib/109460740570752044543\">Brandon Finch</a>"], "photo_reference": "ATtYBwLSWn_eItEdoPFTKBlfQ__3VBVoO5bqlmz5O8b0-Jw5nWZPgg4uVeyi8abdpLlgWWoo_InT_64YEPhywsLe-W-hCow7M3QdoMqcE2d3OgibTDVifXKdPN1aFcnIxwmSKonKyqpvZs0Fq14RdEBrZQToMyPJDr1MSD8Un6CAlAnU3tud", "width": 2576}], "place_id": "ChIJzxBZEcdaP4gRpBWAmkO2lm8", "plus_code": {"compound_code": "X688+9C Springfield, Ohio, United States", "global_code": "86FRX688+9C"}, "price_level": 2, "rating": 4.3, "reference": "ChIJzxBZEcdaP4gRpBWAmkO2lm8", "types": ["hardware_store", "home_goods_store", "point_of_interest", "store", "establishment"], "user_ratings_total": 27}, {"business_status": "OPERATIONAL", "formatted_address": "2616 Kennard-Kingscreek Rd, Urbana, OH 43078, United States", "geometry": {"location": {"lat": 40.1771126, "lng": -83.6943865}, "viewport": {"northeast": {"lat": 40.17846242989272, "lng": -83.69303667010726}, "southwest": {"lat": 40.17576277010728, "lng": -83.69573632989271}}}, "icon": "https://maps.gstatic.com/mapfiles/place_api/icons/v1/png_71/generic_business-71.png", "name": "Roofs by Warren", "opening_hours": {"open_now": true}, "photos": [{"height": 3024, "html_attributions": ["<a href=\"https://maps.google.com/maps/contrib/100872760578746900045\">A Google User</a>"], "photo_reference": "ATtYBwKnXW3hv_ZjhP9TXUKNjs1wnpndVCXUNUm7dz8yJ7srRHbiXDMxASZBQTqUBcyWezif32PDu7v3XRqoPHKL3bkTta1EQliEBPsryDRNxmgP_TrEObqpjewOGEp1coQLU3AqsQM2G5UOGrSgD-rup0Dq5MJmAnqaruJprdJt6oBRRAM3", "width": 4032}], "place_id": "ChIJcRkQcd9bP4gRrw_qeCIneLE", "plus_code": {"compound_code": "58G4+R6 Urbana, Ohio, United States", "global_code": "86GR58G4+R6"}, "rating": 0, "reference": "ChIJcRkQcd9bP4gRrw_qeCIneLE", "types": ["roofing_contractor", "point_of_interest", "establishment"], "user_ratings_total": 0}, {"business_status": "OPERATIONAL", "formatted_address": "1300 N Main St, Urbana, OH 43078, United States", "geometry": {"location": {"lat": 40.1268911, "lng": -83.7494566}, "viewport": {"northeast": {"lat": 40.12821592989273, "lng": -83.74779947010728}, "southwest": {"lat": 40.12551627010728, "lng": -83.75049912989273}}}, "icon": "https://maps.gstatic.com/mapfiles/place_api/icons/v1/png_71/shopping-71.png", "name": "Skelley Lumber Co", "opening_hours": {"open_now": true}, "place_id": "ChIJB2ONChFIP4gRusqlaExxfHo", "plus_code": {"compound_code": "47G2+Q6 Urbana, Ohio, United States", "global_code": "86GR47G2+Q6"}, "rating": 4.8, "reference": "ChIJB2ONChFIP4gRusqlaExxfHo", "types": ["hardware_store", "point_of_interest", "store", "establishment"], "user_ratings_total": 12}, {"business_status": "OPERATIONAL", "formatted_address": "1880 N Bechtle Ave, Springfield, OH 45504, United States", "geometry": {"location": {"lat": 39.9496796, "lng": -83.8291302}, "viewport": {"northeast": {"lat": 39.95114477989272, "lng": -83.82798997010727}, "southwest": {"lat": 39.94844512010728, "lng": -83.83068962989272}}}, "icon": "https://maps.gstatic.com/mapfiles/place_api/icons/v1/png_71/shopping-71.png", "name": "The Home Depot", "opening_hours": {"open_now": true}, "photos": [{"height": 292, "html_attributions": ["<a href=\"https://maps.google.com/maps/contrib/101871294295597672129\">The Home Depot</a>"], "photo_reference": "ATtYBwKjrIi1B6QvAdva9Pk_MRDYOtBDseSco7jqRmWiWYCfhtgsUSqXfMtXuKSL_oJzB5LX3MXXeu8PbTAgnwYjUA0PhGHDm7FDm_jAZIhqIKTBGD3U4DDAZ1PP_a_kujjt-RNoiH-tz7WFv6uHo69iOlXmOidBYp6HvDaj-954dmJrckQ", "width": 704}], "place_id": "ChIJC27ImN9bP4gRkYJC-xUikhI", "plus_code": {"compound_code": "W5XC+V8 Springfield, Ohio, United States", "global_code": "86FRW5XC+V8"}, "rating": 4.1, "reference": "ChIJC27ImN9bP4gRkYJC-xUikhI", "types": ["hardware_store", "furniture_store", "home_goods_store", "point_of_interest", "store", "establishment"], "user_ratings_total": 552}, {"business_status": "OPERATIONAL", "formatted_address": "1601 N Bechtle Ave, Springfield, OH 45504, United States", "geometry": {"location": {"lat": 39.9452551, "lng": -83.83564229999999}, "viewport": {"northeast": {"lat": 39.94659772989273, "lng": -83.83429862010728}, "southwest": {"lat": 39.94389807010728, "lng": -83.83699827989273}}}, "icon": "https://maps.gstatic.com/mapfiles/place_api/icons/v1/png_71/shopping-71.png", "name": "Lowe's Home Improvement", "opening_hours": {"open_now": true}, "photos": [{"height": 4048, "html_attributions": ["<a href=\"https://maps.google.com/maps/contrib/114499739565839273365\">brad Jones</a>"], "photo_reference": "ATtYBwISm7a2PCBZGjBOvzFmx4aIZaGmI4L3JGkeOBwGiBtSTAn6bCvI_bQnRGvu5pCOSOiETdxcNZR-Wi_tNtw1mZx69ihjJqVWXot-kTUf1NPOjtWFEydBmWJ0_lyJ8uXOF__MAgkIyH6JvZ3jit0wkf3Rwyv-grcYWN0qZnwk7mSvS0WH", "width": 3036}], "place_id": "ChIJH-XyZXdbP4gRgfgI-ssIAsg", "plus_code": {"compound_code": "W5W7+4P Springfield, Ohio, United States", "global_code": "86FRW5W7+4P"}, "price_level": 1, "rating": 4.1, "reference": "ChIJH-XyZXdbP4gRgfgI-ssIAsg", "types": ["hardware_store", "furniture_store", "home_goods_store", "point_of_interest", "store", "establishment"], "user_ratings_total": 1152}, {"business_status": "OPERATIONAL", "formatted_address": "338 E Court St, Urbana, OH 43078, United States", "geometry": {"location": {"lat": 40.10903750000001, "lng": -83.7477778}, "viewport": {"northeast": {"lat": 40.11031637989272, "lng": -83.74643452010729}, "southwest": {"lat": 40.10761672010728, "lng": -83.74913417989272}}}, "icon": "https://maps.gstatic.com/mapfiles/place_api/icons/v1/png_71/generic_business-71.png", "name": "Champ Appliance Service", "opening_hours": {"open_now": true}, "photos": [{"height": 639, "html_attributions": ["<a href=\"https://maps.google.com/maps/contrib/117816322360731718803\">Champ Appliance Service</a>"], "photo_reference": "ATtYBwJpryJK8XxWnsYGe_gQFtb2_3nYJQaudIZ6z3SbVqALB-9B-X6yZVrmzABXoflVoTn6c9lh4cHONeryVrrBxX5RUeIfrDiknKlQhDVex3Q0aOIu76vcud-jGTnjkCS-WPf2Fzl98QaM67SMSs8e5rj1kFJS1K3wyChFkjNfEuHbPWSg", "width": 960}], "place_id": "ChIJR4NP7WVIP4gRKB_7utXCNwE", "plus_code": {"compound_code": "4752+JV Urbana, Ohio, United States", "global_code": "86GR4752+JV"}, "rating": 4.7, "reference": "ChIJR4NP7WVIP4gRKB_7utXCNwE", "types": ["point_of_interest", "establishment"], "user_ratings_total": 17}, {"business_status": "OPERATIONAL", "formatted_address": "625 S Edgewood Ave, Urbana, OH 43078, United States", "geometry": {"location": {"lat": 40.1028099, "lng": -83.76918789999999}, "viewport": {"northeast": {"lat": 40.10390822989272, "lng": -83.76802407010726}, "southwest": {"lat": 40.10120857010727, "lng": -83.77072372989271}}}, "icon": "https://maps.gstatic.com/mapfiles/place_api/icons/v1/png_71/generic_business-71.png", "name": "Jwp", "opening_hours": {"open_now": true}, "photos": [{"height": 3120, "html_attributions": ["<a href=\"https://maps.google.com/maps/contrib/111786581668568834493\">Rosebel Bustamante</a>"], "photo_reference": "ATtYBwJIuDFKb7k43vrMLF2nZh7jwBCH24GY1AwF87d6uGLCYoqGsce2OdQ3k-SomJU-VtOgW8BKjam5DmZStapzZzeRGAlStwDF6veOs58lh9eFBIZ2F2nFvNRS71ziFpoXTtp3k1PhAWATri_8FjXM0vBl2Q1tK7AN-hy4ONU7s0sLZstN", "width": 4160}], "place_id": "ChIJuf554tJHP4gR0VLLYZ3LK0E", "plus_code": {"compound_code": "463J+48 Urbana, Ohio, United States", "global_code": "86GR463J+48"}, "rating": 3.5, "reference": "ChIJuf554tJHP4gR0VLLYZ3LK0E", "types": ["point_of_interest", "establishment"], "user_ratings_total": 54}, {"business_status": "OPERATIONAL", "formatted_address": "10954 OH-29, Rosewood, OH 43070, United States", "geometry": {"location": {"lat": 40.2191513, "lng": -83.959278}, "viewport": {"northeast": {"lat": 40.22037182989272, "lng": -83.95794277010727}, "southwest": {"lat": 40.21767217010728, "lng": -83.96064242989272}}}, "icon": "https://maps.gstatic.com/mapfiles/place_api/icons/v1/png_71/generic_business-71.png", "name": "Reeds Restore", "opening_hours": {"open_now": true}, "photos": [{"height": 3120, "html_attributions": ["<a href=\"https://maps.google.com/maps/contrib/100914737689918017318\">A Google User</a>"], "photo_reference": "ATtYBwKkAPTHL_Lpco0hrQ8c_ObWxiSwdLGYxBdxJj-avtAMK2UYlurRbI0HgrXn6BjESp07hR55tluzEVLCrzux9HwunE25CH97wBiGD-t_cfpaMbwuEQJbvTfH_p_voNyd58OO_EA6IMHKeOvMV4OmcWAudasTeLUvzUSdQXgOVeSaiCde", "width": 4160}], "place_id": "ChIJ6YuWuLMVP4gRJx9OBoboyDU", "plus_code": {"compound_code": "629R+M7 Rosewood, Ohio, United States", "global_code": "86GR629R+M7"}, "rating": 2, "reference": "ChIJ6YuWuLMVP4gRJx9OBoboyDU", "types": ["general_contractor", "point_of_interest", "establishment"], "user_ratings_total": 1}], "status": "OK"}],[{"html_attributions": [], "next_page_token": "ATtYBwJMLYIPQVMr__mUJSOAYmAjiiXV4aj1bUEzdI4QZwouZL9oAhQIzoup__Oe1erCQOqF4KlxWE1rrgEynJJAG_IVFe9ZWAlP_t-LtMjef_GmN_xlMg6130GQb3e5EGYU_Ubh1GXCDWOaNrQpMqTNbSg1z5r9rGfePLuOJ6xDOpKfItO39rc2nyqS_bYW4zHIuMEhQ1lFuZpUoVBogAAZzRnCgWZdVpWUAiTs9EH3_y2CjnEQKVwGb9FDtKvEFR1xaK4fDWyq2N06_2vYGFl4MOxv9yZqo8DCwVrhMBhFFuQouBqyLC1K6FvnQxUSHCwfmI673eeFJgkOQ5aH-3ZifqzHYFugE-YNnXMhyimzwCONBT4pQAJmocgZqjMuBSwsJnhAEZcl5J-WlsBiiOrN5wG95MNAYrcHuakZaUpCXUcFZMEjtN0fXAJGR8qIhCcW7sM8NifMrEcFCGxoba1PaY9hRF_Wtyft2xsUm5FFfMtuGHddmRytv2rqWZaCEbWyZxsyABWXqO9eL4D_oqXKOUHECHKSmjsqdrAcZfg7Clstjjrl_HWVLsmf0xmdgoMv", "results": [{"business_status": "OPERATIONAL", "formatted_address": "811 Defiance St, Wapakoneta, OH 45895, United States", "geometry": {"location": {"lat": 40.5804517, "lng": -84.20469899999999}, "viewport": {"northeast": {"lat": 40.58188617989272, "lng": -84.20323727010728}, "southwest": {"lat": 40.57918652010728, "lng": -84.20593692989272}}}, "icon": "https://maps.gstatic.com/mapfiles/place_api/icons/v1/png_71/shopping-71.png", "name": "True Value Wapakoneta", "opening_hours": {"open_now": true}, "photos": [{"height": 3456, "html_attributions": ["<a href=\"https://maps.google.com/maps/contrib/102171551113166902749\">George Gonzalez</a>"], "photo_reference": "ATtYBwI19FJgTfU7aXMtqPDALToGKrPHOtJ8kuRXTlQFSUtTWYiQx4Bu8oT7w4_Ok4lMj1qcaom-1kjqxDWK-P8fIo1DkLu1WZybKvAwFHW914bsZT3CFnULJPtdUcdZ4uGz1VzaR7foc_Z5-ylOu4myvHzXQN_YmAOfqgSPU4jBIIIaW5h5", "width": 4608}], "place_id": "ChIJM7C86kj5PogRJ7hJ_D6FEoo", "plus_code": {"compound_code": "HQJW+54 Wapakoneta, Ohio, United States", "global_code": "86GQHQJW+54"}, "rating": 4.4, "reference": "ChIJM7C86kj5PogRJ7hJ_D6FEoo", "types": ["hardware_store", "locksmith", "home_goods_store", "point_of_interest", "store", "establishment"], "user_ratings_total": 36}, {"business_status": "OPERATIONAL", "formatted_address": "11 E Mechanic St, Wapakoneta, OH 45895, United States", "geometry": {"location": {"lat": 40.568651, "lng": -84.192977}, "viewport": {"northeast": {"lat": 40.57004332989273, "lng": -84.19172412010728}, "southwest": {"lat": 40.56734367010728, "lng": -84.19442377989272}}}, "icon": "https://maps.gstatic.com/mapfiles/place_api/icons/v1/png_71/generic_business-71.png", "name": "B. Cook & Son Plumbing & Heating Inc", "opening_hours": {"open_now": true}, "photos": [{"height": 2448, "html_attributions": ["<a href=\"https://maps.google.com/maps/contrib/112897229263433251531\">A Google User</a>"], "photo_reference": "ATtYBwI9uX7HP0E_FabEVc6WPl83eBXchN7wJyQPdc37dUEi5L9czfEPdKSDXLFFdis7LdQLPgks0M1O7YojqOXusA-pr1KW7hho7lXwOeLcMif2RGLU5A95Dv0BzYF69tmSj8Phytwbc0Wdp3_99_MXKR1kHwSMUIDRdWvO18HYvlNJx_LG", "width": 3264}], "place_id": "ChIJ_0Bt5Kz-PogRqoQ8dSv7ymY", "plus_code": {"compound_code": "HR94+FR Wapakoneta, Ohio, United States", "global_code": "86GQHR94+FR"}, "reference": "ChIJ_0Bt5Kz-PogRqoQ8dSv7ymY", "types": ["plumber", "general_contractor", "point_of_interest", "store", "establishment"]}, {"business_status": "OPERATIONAL", "formatted_address": "1340 Bellefontaine St, Wapakoneta, OH 45895, United States", "geometry": {"location": {"lat": 40.565834, "lng": -84.1752166}, "viewport": {"northeast": {"lat": 40.56702787989272, "lng": -84.17403747010727}, "southwest": {"lat": 40.56432822010728, "lng": -84.17673712989271}}}, "icon": "https://maps.gstatic.com/mapfiles/place_api/icons/v1/png_71/shopping-71.png", "name": "Lowe's Home Improvement", "opening_hours": {"open_now": true}, "photos": [{"height": 270, "html_attributions": ["<a href=\"https://maps.google.com/maps/contrib/116210516518339364911\">Lowe&#39;s Home Improvement</a>"], "photo_reference": "ATtYBwKdxDMAvwOiecnLjdDc2WJXs2qUyOHQ_-afeyniumTP3Q4mhDF5nPb72jCC6F5p2z1tLiGAnFWl0gA8LX4xhn0CpE4JUdZOJcqW56azznK0C5lRD8hskEI_QKOWeVk2Q54BoEMgLQulA4lwpoAKilMeWsvFmVqnk5mez5oQ50_eKmi3", "width": 480}], "place_id": "ChIJeQux9Aj8PogRzVkuIwR_p3U", "plus_code": {"compound_code": "HR8F+8W Wapakoneta, Ohio, United States", "global_code": "86GQHR8F+8W"}, "price_level": 1, "rating": 4.2, "reference": "ChIJeQux9Aj8PogRzVkuIwR_p3U", "types": ["hardware_store", "furniture_store", "home_goods_store", "point_of_interest", "store", "establishment"], "user_ratings_total": 487}, {"business_status": "OPERATIONAL", "formatted_address": "1257 Bellefontaine St, Wapakoneta, OH 45895, United States", "geometry": {"location": {"lat": 40.5621055, "lng": -84.177472}, "viewport": {"northeast": {"lat": 40.56345312989272, "lng": -84.17648537010729}, "southwest": {"lat": 40.56075347010727, "lng": -84.17918502989272}}}, "icon": "https://maps.gstatic.com/mapfiles/place_api/icons/v1/png_71/shopping-71.png", "name": "Walmart Supercenter", "opening_hours": {"open_now": true}, "photos": [{"height": 600, "html_attributions": ["<a href=\"https://maps.google.com/maps/contrib/103964359986852004493\">Walmart Supercenter</a>"], "photo_reference": "ATtYBwKir_72r8IDQ3rpY96oGYM2btH7rdpbZh-voJlOMTSn15hytp0bZn8SmYCQOcE4M3pxb6M-Zod67zPg6gO2f2SJcDATz4PLvZiVpIk2uUKEMpcPS8iFEEB0h1WKEeMrDFtHQ-dlrlnG0TjoY9NeCwEhYhS4jm2x44siySyKYQxwJvQ8", "width": 1067}], "place_id": "ChIJOR-mrQX8PogRTPQGkCyY6T8", "plus_code": {"compound_code": "HR6F+R2 Wapakoneta, Ohio, United States", "global_code": "86GQHR6F+R2"}, "price_level": 1, "rating": 3.8, "reference": "ChIJOR-mrQX8PogRTPQGkCyY6T8", "types": ["department_store", "supermarket", "grocery_or_supermarket", "electronics_store", "home_goods_store", "food", "point_of_interest", "clothing_store", "store", "establishment"], "user_ratings_total": 1296}, {"business_status": "OPERATIONAL", "formatted_address": "100 W Main St, Cridersville, OH 45806, United States", "geometry": {"location": {"lat": 40.654549, "lng": -84.144131}, "viewport": {"northeast": {"lat": 40.65575282989273, "lng": -84.14281237010728}, "southwest": {"lat": 40.65305317010728, "lng": -84.14551202989271}}}, "icon": "https://maps.gstatic.com/mapfiles/place_api/icons/v1/png_71/generic_business-71.png", "name": "Dotson Plumbing, Heating & A/C", "opening_hours": {"open_now": true}, "place_id": "ChIJtXgBUIfwPogRwWq5K9uhN_g", "plus_code": {"compound_code": "MV34+R8 Cridersville, Ohio, United States", "global_code": "86GQMV34+R8"}, "rating": 4.1, "reference": "ChIJtXgBUIfwPogRwWq5K9uhN_g", "types": ["plumber", "general_contractor", "point_of_interest", "establishment"], "user_ratings_total": 14}, {"business_status": "OPERATIONAL", "formatted_address": "3700 S Dixie Hwy, Lima, OH 45806, United States", "geometry": {"location": {"lat": 40.6864527, "lng": -84.1289685}, "viewport": {"northeast": {"lat": 40.68780252989272, "lng": -84.12761867010728}, "southwest": {"lat": 40.68510287010727, "lng": -84.13031832989272}}}, "icon": "https://maps.gstatic.com/mapfiles/place_api/icons/v1/png_71/shopping-71.png", "name": "Shawnee Ace Hardware", "opening_hours": {"open_now": true}, "photos": [{"height": 1687, "html_attributions": ["<a href=\"https://maps.google.com/maps/contrib/100901587046343251984\">Shawnee Ace</a>"], "photo_reference": "ATtYBwIoqxwv0L37lw_xNExRuR7LchFSEq0YY8ZqB0VcS6bqJqhXaD7O2RVUhoOS80ZD8H69CfwgCAuetK_7JEsgKrAr7uBqe_4Z7StIue_NelfyCzcwwmC4BMFPerk1nYIx1NFM1XStIuHavihDEFg9p2Fkg09T1SqNNpXp1h-GuNrq9H4", "width": 2999}], "place_id": "ChIJSewL8UzwPogRWrt4O2FVOLQ", "plus_code": {"compound_code": "MVPC+HC Lima, Ohio, United States", "global_code": "86GQMVPC+HC"}, "price_level": 2, "rating": 4.6, "reference": "ChIJSewL8UzwPogRWrt4O2FVOLQ", "types": ["hardware_store", "home_goods_store", "point_of_interest", "store", "establishment"], "user_ratings_total": 212}, {"business_status": "OPERATIONAL", "formatted_address": "18817 OH-501, Wapakoneta, OH 45895, United States", "geometry": {"location": {"lat": 40.6252695, "lng": -84.2061334}, "viewport": {"northeast": {"lat": 40.62656767989272, "lng": -84.20479777010728}, "southwest": {"lat": 40.62386802010727, "lng": -84.20749742989273}}}, "icon": "https://maps.gstatic.com/mapfiles/place_api/icons/v1/png_71/generic_business-71.png", "name": "Peterson Construction Co", "place_id": "ChIJ16bwF5b5PogRZtizWMyT5-c", "plus_code": {"compound_code": "JQGV+4G Wapakoneta, Ohio, United States", "global_code": "86GQJQGV+4G"}, "rating": 4.3, "reference": "ChIJ16bwF5b5PogRZtizWMyT5-c", "types": ["general_contractor", "point_of_interest", "establishment"], "user_ratings_total": 6}, {"business_status": "OPERATIONAL", "formatted_address": "15318 Pusheta Rd, Wapakoneta, OH 45895, United States", "geometry": {"location": {"lat": 40.5261552, "lng": -84.15890279999999}, "viewport": {"northeast": {"lat": 40.52748757989271, "lng": -84.15755317010728}, "southwest": {"lat": 40.52478792010727, "lng": -84.16025282989271}}}, "icon": "https://maps.gstatic.com/mapfiles/place_api/icons/v1/png_71/shopping-71.png", "name": "Sediment Removal Solutions-Oh", "opening_hours": {"open_now": true}, "place_id": "ChIJqUh4ZbP9PogRisE0q5Zukc4", "plus_code": {"compound_code": "GRGR+FC Wapakoneta, Ohio, United States", "global_code": "86GQGRGR+FC"}, "rating": 0, "reference": "ChIJqUh4ZbP9PogRisE0q5Zukc4", "types": ["general_contractor", "point_of_interest", "store", "establishment"], "user_ratings_total": 0}, {"business_status": "OPERATIONAL", "formatted_address": "223 W Main St, Cridersville, OH 45806, United States", "geometry": {"location": {"lat": 40.6539875, "lng": -84.14635799999999}, "viewport": {"northeast": {"lat": 40.65545177989272, "lng": -84.14501177010727}, "southwest": {"lat": 40.65275212010727, "lng": -84.14771142989272}}}, "icon": "https://maps.gstatic.com/mapfiles/place_api/icons/v1/png_71/generic_business-71.png", "name": "Blass Residential Services - Remodeling and Landscaping", "place_id": "ChIJq6CcYAnyPogRKDZWcmkjoSk", "plus_code": {"compound_code": "MV33+HF Cridersville, Ohio, United States", "global_code": "86GQMV33+HF"},